[
  {"name": "Anaheim", "country": "United States", "latitude": 33.8366, "longitude": -117.9143},
  {"name": "Atlanta", "country": "United States", "latitude": 33.7490, "longitude": -84.3880},
  {"name": "Baltimore", "country": "United States", "latitude": 39.2904, "longitude": -76.6122},
  {"name": "Boston", "country": "United States", "latitude": 42.3601, "longitude": -71.0589},
  {"name": "Chicago", "country": "United States", "latitude": 41.8781, "longitude": -87.6298},
  {"name": "Cincinnati", "country": "United States", "latitude": 39.1031, "longitude": -84.5120},
  {"name": "Cleveland", "country": "United States", "latitude": 41.4993, "longitude": -81.6944},
  {"name": "Dallas", "country": "United States", "latitude": 32.7767, "longitude": -96.7970},
  {"name": "Arlington", "country": "United States", "latitude": 32.7357, "longitude": -97.1081},
  {"name": "Denver", "country": "United States", "latitude": 39.7392, "longitude": -104.9903},
  {"name": "Detroit", "country": "United States", "latitude": 42.3314, "longitude": -83.0458},
  {"name": "Houston", "country": "United States", "latitude": 29.7604, "longitude": -95.3698},
  {"name": "Kansas City", "country": "United States", "latitude": 39.0997, "longitude": -94.5786},
  {"name": "Los Angeles", "country": "United States", "latitude": 34.0522, "longitude": -118.2437},
  {"name": "Miami", "country": "United States", "latitude": 25.7617, "longitude": -80.1918},
  {"name": "Milwaukee", "country": "United States", "latitude": 43.0389, "longitude": -87.9065},
  {"name": "Minneapolis", "country": "United States", "latitude": 44.9778, "longitude": -93.2650},
  {"name": "New York City", "country": "United States", "latitude": 40.7128, "longitude": -74.0060},
  {"name": "Oakland", "country": "United States", "latitude": 37.8044, "longitude": -122.2712},
  {"name": "Philadelphia", "country": "United States", "latitude": 39.9526, "longitude": -75.1652},
  {"name": "Phoenix", "country": "United States", "latitude": 33.4484, "longitude": -112.0740},
  {"name": "Pittsburgh", "country": "United States", "latitude": 40.4406, "longitude": -79.9959},
  {"name": "San Diego", "country": "United States", "latitude": 32.7157, "longitude": -117.1611},
  {"name": "San Francisco", "country": "United States", "latitude": 37.7749, "longitude": -122.4194},
  {"name": "Seattle", "country": "United States", "latitude": 47.6062, "longitude": -122.3321},
  {"name": "St. Louis", "country": "United States", "latitude": 38.6270, "longitude": -90.1994},
  {"name": "St. Petersburg", "country": "United States", "latitude": 27.7676, "longitude": -82.6403},
  {"name": "Tampa", "country": "United States", "latitude": 27.9506, "longitude": -82.4572},
  {"name": "Toronto", "country": "Canada", "latitude": 43.6532, "longitude": -79.3832},
  {"name": "Washington D.C.", "country": "United States", "latitude": 38.9072, "longitude": -77.0369}
]