[
  {
    "name": "Seokguram Grotto and Bulguksa Temple",
    "type": "Cultural",
    "latitude": 35.7900,
    "longitude": 129.3320,
    "countriesIsoA3": ["KOR"],
    "city": "Gyeongju",
    "inscription": "1995",
    "overview": "Seokguram Grotto and Bulguksa Temple are a joint UNESCO World Heritage Site in Gyeongju. Established in the 8th century under the Silla Dynasty, they are masterpieces of Buddhist art in the Far East. Seokguram consists of a granite grotto enshrining a monumental Buddha statue looking at the sea, while Bulguksa is a temple complex featuring wooden buildings on raised stone terraces.",
    "history_significance": "Built during the reign of King Gyeongdeok of the Unified Silla Kingdom (751–774). Seokguram was constructed by Kim Dae-seong for his parents in his past life, while Bulguksa was for his parents in his present life. They represent the golden age of Buddhist culture in Korea.",
    "highlights": "The Main Buddha (Bonjonbul) in Seokguram, Dabotap and Seokgatap pagodas in Bulguksa, and the arched bridges (Cheongungyo and Baegungyo).",
    "locations": [
      { "name": "Seokguram Grotto", "latitude": 35.7950, "longitude": 129.3496 },
      { "name": "Bulguksa Temple", "latitude": 35.7900, "longitude": 129.3320 }
    ]
  },
  {
    "name": "Haeinsa Temple Janggyeong Panjeon, the Depositories for the Tripitaka Koreana Woodblocks",
    "type": "Cultural",
    "latitude": 35.8012,
    "longitude": 128.0991,
    "countriesIsoA3": ["KOR"],
    "city": "Hapcheon",
    "inscription": "1995",
    "overview": "The Janggyeong Panjeon in the Temple of Haeinsa, on Mount Gaya, is home to the Tripitaka Koreana, the most complete collection of Buddhist texts, engraved on 80,000 woodblocks between 1237 and 1248.",
    "history_significance": "The depositories were built in the 15th century and designed specifically to ensure natural ventilation and temperature control to preserve the woodblocks, a remarkable feat of scientific conservation architecture.",
    "highlights": "The layout of the buildings (Sudara-jang and Beopbo-jeon), the scientific ventilation system involving window sizes and clay floors with charcoal and salt.",
    "locations": []
  },
  {
    "name": "Jongmyo Shrine",
    "type": "Cultural",
    "latitude": 37.5746,
    "longitude": 126.9940,
    "countriesIsoA3": ["KOR"],
    "city": "Seoul",
    "inscription": "1995",
    "overview": "Jongmyo is the oldest and most authentic of the Confucian royal shrines to have been preserved. Dedicated to the forefathers of the Joseon dynasty, the shrine has existed in its present form since the 16th century and houses tablets bearing the teachings of members of the former royal family.",
    "history_significance": "Originally built in 1394 by King Taejo, it was destroyed by fire during the Japanese invasions (1592) and rebuilt in 1608. Ritual ceremonies linking music, song, and dance (Jongmyo Jerye) have taken place there for centuries.",
    "highlights": "Jeongjeon (Main Hall) which is the longest wooden building of traditional Korea, and the solemn atmosphere of the ancestral rites.",
    "locations": []
  },
  {
    "name": "Changdeokgung Palace Complex",
    "type": "Cultural",
    "latitude": 37.5791,
    "longitude": 126.9910,
    "countriesIsoA3": ["KOR"],
    "city": "Seoul",
    "inscription": "1997",
    "overview": "Changdeokgung Palace was the second royal villa built following the construction of Gyeongbokgung Palace in 1405. It is an outstanding example of Far Eastern palace architecture and garden design, exceptional for the way in which the buildings are integrated into and harmonized with the natural setting.",
    "history_significance": "It served as the principal palace for many Joseon kings and is the best-preserved of the five remaining royal palaces of the Joseon Dynasty.",
    "highlights": "Biwon (Secret Garden), Injeongjeon Hall, and the layout that follows the topography of the land rather than imposing a grid.",
    "locations": []
  },
  {
    "name": "Petroglyphs along the Bangucheon Stream",
    "type": "Cultural",
    "latitude": 35.5270,
    "longitude": 129.1140,
    "countriesIsoA3": ["KOR"],
    "city": "Ulsan",
    "inscription": "2024",
    "overview": "Located along the Bangucheon Stream in Ulsan, this serial property comprises two exceptional prehistoric petroglyph sites that document aspects of prehistoric life, rituals, and symbolic expression from the Neolithic to the early Iron Age.",
    "history_significance": "The Bangudae Petroglyphs contain some of the world's earliest large-scale depictions of whales and marine hunting scenes, while the Cheonjeon-ri Petroglyphs exhibit multi-layered carvings spanning thousands of years. Together, they illustrate the cultural, subsistence, and spiritual practices of prehistoric peoples on the Korean Peninsula.",
    "highlights": "The whale hunting scenes of Bangudae, the superimposed carving layers at Cheonjeon-ri, and the natural rock shelter setting along the Bangucheon Stream.",
    "locations": [
      { "name": "Bangudae Petroglyphs", "latitude": 35.5280, "longitude": 129.1130 },
      { "name": "Cheonjeon-ri Petroglyphs", "latitude": 35.5165, "longitude": 129.1049 }
    ]
  },
  {
    "name": "Hwaseong Fortress",
    "type": "Cultural",
    "latitude": 37.2875,
    "longitude": 127.0118,
    "countriesIsoA3": ["KOR"],
    "city": "Suwon",
    "inscription": "1997",
    "overview": "Hwaseong is a piled-stone and brick fortress of the Joseon Dynasty that surrounds the center of Suwon City. It was built in the late 18th century by King Jeongjo for defensive purposes, to house a new political center, and to house the remains of his father, Crown Prince Sado.",
    "history_significance": "Constructed between 1794 and 1796 under the guidance of scholar Jeong Yak-yong, explicitly using the 'Hwaseong Seongyeok Uigwe' (Royal Protocols) which detailed the construction process. It incorporated scientific engineering concepts like the crane (Geojunggi).",
    "highlights": "Paldalmun Gate, Hwahongmun Gate, and the combination of military defense features with commercial functions.",
    "locations": []
  },
  {
    "name": "Gochang, Hwasun and Ganghwa Dolmen Sites",
    "type": "Cultural",
    "latitude": 35.4475,
    "longitude": 126.6433,
    "countriesIsoA3": ["KOR"],
    "city": "Various",
    "inscription": "2000",
    "overview": "The prehistoric cemeteries at Gochang, Hwasun, and Ganghwa contain many hundreds of examples of dolmens — tombs from the 1st millennium BC constructed of large stone slabs. They represent the highest density of dolmens in the world.",
    "history_significance": "These sites provide key evidence of the megalithic culture in Korea and the social structure, technology, and spiritual values of the Bronze Age people.",
    "highlights": "The massive capstones, the variety of dolmen types (table type vs. paduk type), and the sheer number of monuments.",
    "locations": [
      { "name": "Gochang Dolmen Site", "latitude": 35.4475, "longitude": 126.6433 },
      { "name": "Hwasun Dolmen Site", "latitude": 34.9758, "longitude": 126.9317 },
      { "name": "Ganghwa Dolmen Site", "latitude": 37.7478, "longitude": 126.4356 }
    ]
  },
  {
    "name": "Gyeongju Historic Areas",
    "type": "Cultural",
    "latitude": 35.8344,
    "longitude": 129.2199,
    "countriesIsoA3": ["KOR"],
    "city": "Gyeongju",
    "inscription": "2000",
    "overview": "The Gyeongju Historic Areas contain a remarkable concentration of outstanding examples of Korean Buddhist art, in the form of sculptures, reliefs, pagodas, and the remains of temples and palaces from the Silla culture (7th to 10th century).",
    "history_significance": "Gyeongju was the capital of the Silla Kingdom for nearly a thousand years. The sites are divided into five belts representing different aspects of the culture: royal, buddhist, defensive, etc.",
    "highlights": "Cheomseongdae Observatory, Royal Tombs of Daereungwon, Anapji Pond (Donggung Palace and Wolji), and the ruins of Hwangnyongsa Temple.",
    "locations": [
      { "name": "Mount Namsan Belt", "latitude": 35.7963, "longitude": 129.2272 },
      { "name": "Wolseong Belt", "latitude": 35.8322, "longitude": 129.2250 },
      { "name": "Tumuli Park Belt", "latitude": 35.8375, "longitude": 129.2097 },
      { "name": "Hwangnyongsa Belt", "latitude": 35.8391, "longitude": 129.2319 },
      { "name": "Sanseong Fortress Belt", "latitude": 35.8572, "longitude": 129.2433 }
    ]
  },
  {
    "name": "Jeju Volcanic Island and Lava Tubes",
    "type": "Natural",
    "latitude": 33.3617,
    "longitude": 126.5332,
    "countriesIsoA3": ["KOR"],
    "city": "Jeju",
    "inscription": "2007",
    "overview": "Jeju Volcanic Island and Lava Tubes is a natural World Heritage Site comprising three areas that make up 18,846 ha. It includes Geomunoreum, regarded as the finest lava tube system of caves anywhere, the dramatic fortress-like Seongsan Ilchulbong tuff cone, and Mount Halla, the highest mountain in South Korea.",
    "history_significance": "It bears testimony to the history of the planet, its features, and processes. The lava tubes are known for their spectacular speleothems and dark red carbonate formations.",
    "highlights": "Mount Halla (Hallasan), Seongsan Ilchulbong (Sunrise Peak), and the Manjanggul Lava Tube.",
    "locations": [
      { "name": "Mount Hallasan Natural Reserve", "latitude": 33.3617, "longitude": 126.5332 },
      { "name": "Seongsan Ilchulbong Tuff Cone", "latitude": 33.4581, "longitude": 126.9426 },
      { "name": "Geomunoreum Lava Tube System", "latitude": 33.4578, "longitude": 126.7167 }
    ]
  },
  {
    "name": "Royal Tombs of the Joseon Dynasty",
    "type": "Cultural",
    "latitude": 37.6322,
    "longitude": 127.1264,
    "countriesIsoA3": ["KOR"],
    "city": "Various (South Korea)",
    "inscription": "2009",
    "overview": "The collection of 40 tombs of the Joseon Dynasty (1408-1966) scattered over 18 locations. Built to honor the memory of ancestors, show respect for their achievements, and assert royal authority, the tombs are meticulously landscaped according to geomantic principles (pungsu).",
    "history_significance": "They provide a unique insight into the tomb architecture, ritual practices, and ancestor worship of the Joseon Dynasty, maintained for over 500 years.",
    "highlights": "Donggureung Cluster, Seonjeongneung (in Gangnam), and Yeongneung (Tomb of King Sejong).",
    "locations": [
      { "name": "Donggureung Cluster", "latitude": 37.6186, "longitude": 127.1333 },
      { "name": "Gwangneung", "latitude": 37.7553, "longitude": 127.1758 },
      { "name": "Heonneung and Inneung", "latitude": 37.4661, "longitude": 127.0828 },
      { "name": "Seonjeongneung", "latitude": 37.5086, "longitude": 127.0494 },
      { "name": "Yeongneung and Nyeongneung (Yeoju)", "latitude": 37.2944, "longitude": 127.6044 },
      { "name": "Seooreung Cluster", "latitude": 37.6322, "longitude": 126.8986 },
      { "name": "Seosamneung Cluster", "latitude": 37.6333, "longitude": 126.8722 },
      { "name": "Yungneung and Geolleung", "latitude": 37.2081, "longitude": 126.9856 },
      { "name": "Paju Samneung", "latitude": 37.7428, "longitude": 126.8292 },
      { "name": "Paju Jangneung", "latitude": 37.7778, "longitude": 126.7058 },
      { "name": "Gimpo Jangneung", "latitude": 37.6158, "longitude": 126.7081 },
      { "name": "Yangju Onneung", "latitude": 37.7194, "longitude": 126.9453 },
      { "name": "Jeongneung (Seoul)", "latitude": 37.6019, "longitude": 127.0064 },
      { "name": "Taereung and Gangneung", "latitude": 37.6300, "longitude": 127.0983 },
      { "name": "Uireung", "latitude": 37.6044, "longitude": 127.0561 },
      { "name": "Namyangju Sareung", "latitude": 37.6433, "longitude": 127.1983 },
      { "name": "Hongneung and Yureung", "latitude": 37.6325, "longitude": 127.2125 },
      { "name": "Yeongwol Jangneung", "latitude": 37.1953, "longitude": 128.4550 }
    ]
  },
  {
    "name": "Historic Villages of Korea: Hahoe and Yangdong",
    "type": "Cultural",
    "latitude": 36.5386,
    "longitude": 128.5183,
    "countriesIsoA3": ["KOR"],
    "city": "Andong & Gyeongju",
    "inscription": "2010",
    "overview": "Hahoe and Yangdong are the two most representative historic clan villages in Korea. Founded in the 14th–15th centuries, they are located in settings that reflect the distinctive aristocratic Confucian culture of the early Joseon Dynasty.",
    "history_significance": "The villages have preserved their traditional layout, wooden houses, pavilions, and study halls, as well as their intangible cultural heritage including rituals and traditional games.",
    "highlights": "Traditional Hanok architecture, the location based on Pungsu (Feng Shui), and the preserved clan lineages (Ryu clan in Hahoe, Son and Lee clans in Yangdong).",
    "locations": [
      { "name": "Hahoe Village", "latitude": 36.5386, "longitude": 128.5183 },
      { "name": "Yangdong Village", "latitude": 36.0019, "longitude": 129.2542 }
    ]
  },
  {
    "name": "Namhansanseong",
    "type": "Cultural",
    "latitude": 37.4786,
    "longitude": 127.1836,
    "countriesIsoA3": ["KOR"],
    "city": "Gwangju (Gyeonggi)",
    "inscription": "2014",
    "overview": "Namhansanseong was designed as an emergency capital for the Joseon Dynasty, in anticipation of an invasion. Built and defended by Buddhist monk-soldiers, it utilizes advanced fortification technology from China and Japan and embodies a synthesis of defensive military engineering concepts.",
    "history_significance": "It served as a temporary capital during the Second Manchu Invasion of 1636. It represents a turning point in fortress construction in the 17th century in East Asia.",
    "highlights": "The Fortress Walls (approx 12km), the Emergency Palace (Haenggung), and Sueojangdae Command Post.",
    "locations": []
  },
  {
    "name": "Baekje Historic Areas",
    "type": "Cultural",
    "latitude": 36.4633,
    "longitude": 127.1194,
    "countriesIsoA3": ["KOR"],
    "city": "Gongju, Buyeo, Iksan",
    "inscription": "2015",
    "overview": "Located in the mountainous mid-western region of the Republic of Korea, this property comprises eight archaeological sites dating from 475 to 660 CE, representing the later period of the Baekje Kingdom. It testifies to the exchange between the ancient East Asian kingdoms.",
    "history_significance": "The sites show the development of Baekje architecture, technology, and religion (Buddhism) and its transmission to Japan and other regions.",
    "highlights": "Gongsanseong Fortress, Royal Tombs in Songsan-ri, Busosanseong Fortress, Jeongnimsa Temple Site, and Mireuksaji Temple Site.",
    "locations": [
      { "name": "Gongsanseong Fortress", "latitude": 36.4633, "longitude": 127.1194 },
      { "name": "Royal Tombs in Songsan-ri", "latitude": 36.4619, "longitude": 127.1106 },
      { "name": "Busosanseong Fortress & Gwanbuk-ri", "latitude": 36.2872, "longitude": 126.9133 },
      { "name": "Jeongnimsa Temple Site", "latitude": 36.2797, "longitude": 126.9036 },
      { "name": "Royal Tombs in Neungsan-ri", "latitude": 36.2783, "longitude": 126.9408 },
      { "name": "Naseong City Wall", "latitude": 36.2683, "longitude": 126.9383 },
      { "name": "Wanggung-ri Palace Site", "latitude": 35.9719, "longitude": 127.0547 },
      { "name": "Mireuksaji Temple Site", "latitude": 36.0119, "longitude": 127.0311 }
    ]
  },
  {
    "name": "Sansa, Buddhist Mountain Monasteries in Korea",
    "type": "Cultural",
    "latitude": 35.4893,
    "longitude": 129.0506,
    "countriesIsoA3": ["KOR"],
    "city": "Various",
    "inscription": "2018",
    "overview": "Sansa, Buddhist Mountain Monasteries in Korea, are spatial arrangements of the seven temples that have been preserved as places of faith and daily religious practice since the 7th–9th centuries. They exhibit common characteristics of Korean Buddhist temples: the 'madang' (open courtyard) flanked by four buildings.",
    "history_significance": "These monasteries have survived as living centers of faith and daily practice for over a millennium, maintaining their original layout and architectural style.",
    "highlights": "Tongdosa (no Buddha statue, enshrines relics), Buseoksa (Muryangsujeon Hall), and Beopjusa (Palsangjeon Wooden Pagoda).",
    "locations": [
      { "name": "Tongdosa Temple", "latitude": 35.4893, "longitude": 129.0506 },
      { "name": "Buseoksa Temple", "latitude": 36.9961, "longitude": 128.6942 },
      { "name": "Bongjeongsa Temple", "latitude": 36.6028, "longitude": 128.6653 },
      { "name": "Beopjusa Temple", "latitude": 36.5414, "longitude": 127.8331 },
      { "name": "Magoksa Temple", "latitude": 36.5614, "longitude": 127.0097 },
      { "name": "Seonamsa Temple", "latitude": 34.9969, "longitude": 127.3306 },
      { "name": "Daeheungsa Temple", "latitude": 34.4753, "longitude": 126.6178 }
    ]
  },
  {
    "name": "Seowon, Korean Neo-Confucian Academies",
    "type": "Cultural",
    "latitude": 36.9317,
    "longitude": 128.5800,
    "countriesIsoA3": ["KOR"],
    "city": "Various",
    "inscription": "2019",
    "overview": "This site comprises nine Seowon, representing a type of Neo-Confucian academy of the Joseon Dynasty. They were established to honor exemplary Neo-Confucian scholars and to educate youth. They illustrate an educational process where learning was not distinct from self-cultivation.",
    "history_significance": "Seowon served as the strongholds of Neo-Confucianism in local districts. Their architecture typically places the study area in the front and the ritual area in the rear (Jeonhak Hujye).",
    "highlights": "Sosu-seowon (the first Seowon), Dosan-seowon (associated with Yi Hwang), and the harmony of the buildings with the surrounding landscape.",
    "locations": [
      { "name": "Sosu-seowon", "latitude": 36.9317, "longitude": 128.5800 },
      { "name": "Namgye-seowon", "latitude": 35.5397, "longitude": 127.7850 },
      { "name": "Oksan-seowon", "latitude": 36.0094, "longitude": 129.1625 },
      { "name": "Dosan-seowon", "latitude": 36.7264, "longitude": 128.8475 },
      { "name": "Piram-seowon", "latitude": 35.3467, "longitude": 126.7578 },
      { "name": "Dodong-seowon", "latitude": 35.7003, "longitude": 128.3842 },
      { "name": "Byeongsan-seowon", "latitude": 36.5392, "longitude": 128.5525 },
      { "name": "Museong-seowon", "latitude": 35.6067, "longitude": 126.8528 },
      { "name": "Donam-seowon", "latitude": 36.2164, "longitude": 127.1269 }
    ]
  },
  {
    "name": "Getbol, Korean Tidal Flats",
    "type": "Natural",
    "latitude": 36.0583,
    "longitude": 126.6667,
    "countriesIsoA3": ["KOR"],
    "city": "Various (Coastal)",
    "inscription": "2021",
    "overview": "Getbol, Korean Tidal Flats, comprises four distinct sites on the south-western and southern coast of Korea. It demonstrates the link between geodiversity and biodiversity, serving as a vital stopover for migratory waterbirds.",
    "history_significance": "A globally important habitat for threatened species such as the Spoon-billed Sandpiper. It represents one of the world's most unique and complex macrotidal flat systems.",
    "highlights": "Seocheon Getbol, Gochang Getbol, Shinan Getbol (the largest area), and Boseong-Suncheon Getbol.",
    "locations": [
      { "name": "Seocheon Getbol", "latitude": 36.0583, "longitude": 126.6667 },
      { "name": "Gochang Getbol", "latitude": 35.5333, "longitude": 126.5500 },
      { "name": "Shinan Getbol", "latitude": 34.8167, "longitude": 126.1667 },
      { "name": "Boseong-Suncheon Getbol", "latitude": 34.8333, "longitude": 127.4333 }
    ]
  },
  {
    "name": "Gaya Tumuli",
    "type": "Cultural",
    "latitude": 35.2389,
    "longitude": 128.8778,
    "countriesIsoA3": ["KOR"],
    "city": "Various",
    "inscription": "2023",
    "overview": "The Gaya Tumuli consists of seven tomb clusters which display the architectural style and burial customs of the Gaya Confederacy (42-562 CE). These sites testify to the unique political system of Gaya, which maintained a confederacy of autonomous polities.",
    "history_significance": "It offers important evidence of the diversity of ancient East Asian civilizations and the exchange between the Gaya, Silla, and Japanese domains.",
    "highlights": "Daeseong-dong Tumuli (Gimhae), Marisan Tumuli (Haman), and Jisan-dong Tumuli (Goryeong).",
    "locations": [
      { "name": "Gimhae Daeseong-dong Tumuli", "latitude": 35.2389, "longitude": 128.8778 },
      { "name": "Haman Marisan Tumuli", "latitude": 35.2667, "longitude": 128.4125 },
      { "name": "Hapcheon Okjeon Tumuli", "latitude": 35.5847, "longitude": 128.1750 },
      { "name": "Goryeong Jisan-dong Tumuli", "latitude": 35.7222, "longitude": 128.2583 },
      { "name": "Goseong Songhak-dong Tumuli", "latitude": 34.9817, "longitude": 128.3217 },
      { "name": "Changnyeong Gyo-dong and Songhyeon-dong Tumuli", "latitude": 35.5458, "longitude": 128.5028 },
      { "name": "Namwon Yugok-ri and Durak-ri Tumuli", "latitude": 35.4858, "longitude": 127.5681 }
    ]
  },
  {
    "name": "Tchogha Zanbil",
    "type": "Cultural",
    "latitude": 32.0084,
    "longitude": 48.5204,
    "countriesIsoA3": ["IRN"],
    "city": "Shush",
    "inscription": "1979",
    "overview": "The ruins of the holy city of the Kingdom of Elam, surrounded by three huge concentric walls. Founded c. 1250 BC, the city remained unfinished after it was invaded by Ashurbanipal.",
    "history_significance": "Contains the best preserved and the largest ziggurat outside of Mesopotamia. It testifies to the development of the Elamite civilization.",
    "highlights": "The massive Ziggurat dedicated to Inshushinak, the concentric walls, and the royal palaces.",
    "locations": []
  },
  {
    "name": "Persepolis",
    "type": "Cultural",
    "latitude": 29.9352,
    "longitude": 52.8906,
    "countriesIsoA3": ["IRN"],
    "city": "Marvdasht",
    "inscription": "1979",
    "overview": "Founded by Darius I in 518 BC, Persepolis was the capital of the Achaemenid Empire. It was built on an immense half-artificial, half-natural terrace, where the king of kings created an impressive palace complex.",
    "history_significance": "The ceremonial capital of the first Persian Empire, showcasing the grandeur of Achaemenid architecture before its destruction by Alexander the Great.",
    "highlights": "Gate of All Nations, Apadana Palace, and the intricate bas-reliefs.",
    "locations": []
  },
  {
    "name": "Meidan Emam, Esfahan",
    "type": "Cultural",
    "latitude": 32.6575,
    "longitude": 51.6775,
    "countriesIsoA3": ["IRN"],
    "city": "Isfahan",
    "inscription": "1979",
    "overview": "Built by Shah Abbas I the Great at the beginning of the 17th century, this immense square is bordered by monumental buildings linked by a series of two-storeyed arcades.",
    "history_significance": "One of the largest public squares in the world and a masterpiece of Safavid architecture.",
    "highlights": "Royal Mosque (Imam Mosque), Sheikh Lotfollah Mosque, Ali Qapu Palace, and the Quesaysyeh Portico.",
    "locations": []
  },
  {
    "name": "Takht-e Soleyman",
    "type": "Cultural",
    "latitude": 36.6033,
    "longitude": 47.2356,
    "countriesIsoA3": ["IRN"],
    "city": "Takab",
    "inscription": "2003",
    "overview": "The archaeological site of Takht-e Soleyman, in north-western Iran, is situated in a valley set in a volcanic mountain region. It includes the principal Zoroastrian sanctuary partly rebuilt in the Ilkhanid (Mongol) period.",
    "history_significance": "The spiritual center of Zoroastrianism during the Sassanid era, featuring a fire temple built around a mineral lake.",
    "highlights": "The artesian lake, the Fire Temple of Azargoshnasp, and the Anahita Temple.",
    "locations": []
  },
  {
    "name": "Bam and its Cultural Landscape",
    "type": "Cultural",
    "latitude": 29.1152,
    "longitude": 58.3694,
    "countriesIsoA3": ["IRN"],
    "city": "Bam",
    "inscription": "2004",
    "overview": "Bam is situated in a desert environment on the southern edge of the Iranian high plateau. The origins of Bam can be traced back to the Achaemenid period (6th to 4th centuries BC). Its heyday was from the 7th to 11th centuries.",
    "history_significance": "Arg-e Bam is the largest adobe building in the world, representing a fortified medieval town built using mud layers (Chineh).",
    "highlights": "The Citadel (Arg-e Bam), the bazaar, and the ancient qanats.",
    "locations": []
  },
  {
    "name": "Pasargadae",
    "type": "Cultural",
    "latitude": 30.1936,
    "longitude": 53.1678,
    "countriesIsoA3": ["IRN"],
    "city": "Pasargadae",
    "inscription": "2004",
    "overview": "Pasargadae was the first dynastic capital of the Achaemenid Empire, founded by Cyrus II the Great, in the 6th century BC.",
    "history_significance": "It is an exceptional testimony to the Achaemenid civilization and includes the mausoleum of Cyrus the Great.",
    "highlights": "Tomb of Cyrus the Great, Tall-e Takht, and the residential palace.",
    "locations": []
  },
  {
    "name": "Soltaniyeh",
    "type": "Cultural",
    "latitude": 36.4358,
    "longitude": 48.7967,
    "countriesIsoA3": ["IRN"],
    "city": "Soltaniyeh",
    "inscription": "2005",
    "overview": "The mausoleum of Oljaytu was constructed in 1302–12 in the city of Soltaniyeh, the capital of the Ilkhanid dynasty. It is a key monument in the development of Islamic architecture.",
    "history_significance": "Features one of the oldest and largest double-shell brick domes in the world, influencing the Taj Mahal.",
    "highlights": "Dome of Soltaniyeh and its intricate turquoise tile work.",
    "locations": []
  },
  {
    "name": "Bisotun",
    "type": "Cultural",
    "latitude": 34.3908,
    "longitude": 47.4328,
    "countriesIsoA3": ["IRN"],
    "city": "Bisotun",
    "inscription": "2006",
    "overview": "Bisotun is located along the ancient trade route linking the Iranian high plateau with Mesopotamia and features remains from the prehistoric times to the Median, Achaemenid, Sassanid, and Ilkhanid periods.",
    "history_significance": "Famous for the bas-relief and cuneiform inscription ordered by Darius I the Great, which was crucial for deciphering cuneiform script.",
    "highlights": "The Darius I Inscription and the Statue of Hercules.",
    "locations": []
  },
  {
    "name": "Armenian Monastic Ensembles of Iran",
    "type": "Cultural",
    "latitude": 39.0942,
    "longitude": 44.5458,
    "countriesIsoA3": ["IRN"],
    "city": "Various (Iran)",
    "inscription": "2008",
    "overview": "Consists of three monastic ensembles of the Armenian Christian faith: St Thaddeus, St Stepanos, and the Chapel of Dzordzor.",
    "history_significance": "Testifies to the interchange between Armenian and Persian architectures and is a major center of Armenian culture in the region.",
    "highlights": "The Black Church (St. Thaddeus) and its stone reliefs.",
    "locations": [
      { "name": "St. Thaddeus Monastery", "latitude": 39.0942, "longitude": 44.5458 },
      { "name": "St. Stepanos Monastery", "latitude": 38.9808, "longitude": 45.4722 },
      { "name": "Chapel of Dzordzor", "latitude": 39.1836, "longitude": 44.4825 }
    ]
  },
  {
    "name": "Shushtar Historical Hydraulic System",
    "type": "Cultural",
    "latitude": 32.0436,
    "longitude": 48.8550,
    "countriesIsoA3": ["IRN"],
    "city": "Shushtar",
    "inscription": "2009",
    "overview": "A masterpiece of creative genius, the hydraulic system involves the creation of two main diversion canals on the river Karun. It forms a spectacular cliff from which water cascades into a downstream basin.",
    "history_significance": "Dating back to Darius the Great and completed in the Sassanid era, it demonstrates advanced Roman-Persian engineering.",
    "highlights": "The Gargar Canal, watermills, and the Salasil Castle.",
    "locations": []
  },
  {
    "name": "Sheikh Safi al-din Khānegāh and Shrine Ensemble in Ardabil",
    "type": "Cultural",
    "latitude": 38.2492,
    "longitude": 48.2917,
    "countriesIsoA3": ["IRN"],
    "city": "Ardabil",
    "inscription": "2010",
    "overview": "Built between the beginning of the 16th century and the end of the 18th century, this place of spiritual retreat in the Sufi tradition uses Iranian traditional architectural forms to maximize the use of available space.",
    "history_significance": "Burial place of Sheikh Safi, the ancestor of the Safavid kings, and a center of Sufi mysticism.",
    "highlights": "The Allah-Allah Dome and the Chinikhaneh (House of Porcelain).",
    "locations": []
  },
  {
    "name": "Tabriz Historic Bazaar Complex",
    "type": "Cultural",
    "latitude": 38.0811,
    "longitude": 46.2922,
    "countriesIsoA3": ["IRN"],
    "city": "Tabriz",
    "inscription": "2010",
    "overview": "Tabriz has been a place of cultural exchange since antiquity. Its historic bazaar complex is one of the most important commercial centers on the Silk Road.",
    "history_significance": "The largest covered bazaar in the world, consisting of a series of interconnected, covered brick structures.",
    "highlights": "Mozaffariyeh (Carpet Bazaar) and the Amir Bazaar.",
    "locations": []
  },
  {
    "name": "The Persian Garden",
    "type": "Cultural",
    "latitude": 30.1772,
    "longitude": 53.1819,
    "countriesIsoA3": ["IRN"],
    "city": "Various (Iran)",
    "inscription": "2011",
    "overview": "The property includes nine gardens in as many provinces. They exemplify the diversity of Persian garden designs that evolved and adapted to different climate conditions.",
    "history_significance": "Represents the 'Eden' symbolism with four sectors (Chahar Bagh), water management, and pavilions.",
    "highlights": "Eram Garden, Fin Garden, and Shazdeh Garden.",
    "locations": [
      { "name": "Ancient Garden of Pasargadae", "latitude": 30.1936, "longitude": 53.1678 },
      { "name": "Chehel Sotoun (Isfahan)", "latitude": 32.6575, "longitude": 51.6711 },
      { "name": "Fin Garden (Kashan)", "latitude": 33.9458, "longitude": 51.3719 },
      { "name": "Eram Garden (Shiraz)", "latitude": 29.6358, "longitude": 52.5275 },
      { "name": "Shazdeh Garden (Mahan)", "latitude": 30.0267, "longitude": 57.2831 },
      { "name": "Dolatabad Garden (Yazd)", "latitude": 31.9022, "longitude": 54.3533 },
      { "name": "Abbasabad Garden (Mazandaran)", "latitude": 36.6631, "longitude": 53.5933 },
      { "name": "Akbarieh Garden (Birjand)", "latitude": 32.8539, "longitude": 59.2225 },
      { "name": "Pahlevanpour Garden (Mehriz)", "latitude": 31.5583, "longitude": 54.4394 }
    ]
  },
  {
    "name": "Gonbad-e Qābus",
    "type": "Cultural",
    "latitude": 37.2558,
    "longitude": 55.1683,
    "countriesIsoA3": ["IRN"],
    "city": "Gonbad-e Qabus",
    "inscription": "2012",
    "overview": "The 53m high tomb built in ad 1006 for Qābus Ibn Voshmgir, Ziyarid ruler and literati, near the ruins of the ancient city of Jorjan.",
    "history_significance": "A masterpiece of early Islamic brick architecture, it is the tallest pure brick tower in the world.",
    "highlights": "The star-shaped plan and the Kufic inscriptions.",
    "locations": []
  },
  {
    "name": "Masjed-e Jāmé of Isfahan",
    "type": "Cultural",
    "latitude": 32.6697,
    "longitude": 51.6853,
    "countriesIsoA3": ["IRN"],
    "city": "Isfahan",
    "inscription": "2012",
    "overview": "Located in the historic center of Isfahan, the Masjed-e Jāmé ('Friday mosque') can be seen as a stunning illustration of the evolution of mosque architecture over twelve centuries.",
    "history_significance": "The first Islamic building that adapted the four-iwan courtyard layout of Sassanid palaces to Islamic religious architecture.",
    "highlights": "The Nezam al-Molk Dome and the Taj al-Molk Dome.",
    "locations": []
  },
  {
    "name": "Golestan Palace",
    "type": "Cultural",
    "latitude": 35.6792,
    "longitude": 51.4208,
    "countriesIsoA3": ["IRN"],
    "city": "Tehran",
    "inscription": "2013",
    "overview": "The lavish Golestan Palace is a masterpiece of the Qajar era, embodying the successful integration of earlier Persian crafts and architecture with Western influences.",
    "history_significance": "The seat of the Qajar government and a center of arts and architecture in the 19th century.",
    "highlights": "The Marble Throne (Takht-e Marmar), Shams-ol-Emareh, and the Mirror Hall.",
    "locations": []
  },
  {
    "name": "Shahr-i Sokhta",
    "type": "Cultural",
    "latitude": 30.5969,
    "longitude": 61.3303,
    "countriesIsoA3": ["IRN"],
    "city": "Zabol",
    "inscription": "2014",
    "overview": "Shahr-i Sokhta, meaning 'Burnt City', is located at the junction of Bronze Age trade routes crossing the Iranian plateau. Founded around 3200 BC, it was populated during four main periods up to 1800 BC.",
    "history_significance": "Famous for advanced ancient findings including the world's oldest artificial eye, brain surgery evidence, and animation concepts.",
    "highlights": "The archaeological mounds and the cemetery.",
    "locations": []
  },
  {
    "name": "Cultural Landscape of Maymand",
    "type": "Cultural",
    "latitude": 30.2336,
    "longitude": 55.3672,
    "countriesIsoA3": ["IRN"],
    "city": "Shahr-e Babak",
    "inscription": "2015",
    "overview": "Maymand is a self-contained, semi-arid area at the end of a mountain valley. The villagers are semi-nomadic agro-pastoralists who live in troglodyte houses carved into the soft rock.",
    "history_significance": "An example of a system that appears to have been more widespread in the past and involves the movement of people rather than animals.",
    "highlights": "The hand-dug cave dwellings (Kicheh) occupied for thousands of years.",
    "locations": []
  },
  {
    "name": "Susa",
    "type": "Cultural",
    "latitude": 32.1906,
    "longitude": 48.2433,
    "countriesIsoA3": ["IRN"],
    "city": "Shush",
    "inscription": "2015",
    "overview": "Located in the lower Zagros Mountains, the property encompasses a group of archaeological mounds rising on the eastern side of the Shavur River, as well as Ardeshir's palace.",
    "history_significance": "One of the oldest known settlements in the world, serving as the capital of Elam and the Achaemenid winter capital.",
    "highlights": "The Apadana of Darius, the Tomb of Daniel, and the Acropolis.",
    "locations": []
  },
  {
    "name": "Lut Desert",
    "type": "Natural",
    "latitude": 30.2167,
    "longitude": 58.8333,
    "countriesIsoA3": ["IRN"],
    "city": "Various (Iran)",
    "inscription": "2016",
    "overview": "The Lut Desert, or Dasht-e Lut, is located in the south-east of the country. Between June and October, this arid subtropical area is swept by strong winds, which transport sediment and cause erosion on a colossal scale.",
    "history_significance": "Known as the hottest place on Earth (recorded 70.7°C) and features spectacular Yardangs (sand ridges).",
    "highlights": "The Kaluts (Yardangs) of Shahdad and the massive sand dunes.",
    "locations": []
  },
  {
    "name": "The Persian Qanat",
    "type": "Cultural",
    "latitude": 34.2889,
    "longitude": 58.7900,
    "countriesIsoA3": ["IRN"],
    "city": "Various (Iran)",
    "inscription": "2016",
    "overview": "Throughout the arid regions of Iran, agricultural and permanent settlements are supported by the ancient qanat system of tapping alluvial aquifers at the heads of valleys and conducting the water along underground tunnels.",
    "history_significance": "An ancient engineering feat that allowed civilization to flourish in the desert, representing a tradition of communal management of water resources.",
    "highlights": "Ghasabeh Qanat (deepest), Zarch Qanat (longest), and the double-decked Moon Qanat.",
    "locations": [
      { "name": "Qasabeh Qanat (Gonabad)", "latitude": 34.2889, "longitude": 58.7900 },
      { "name": "Baladeh Qanat (Ferdows)", "latitude": 34.0153, "longitude": 58.1706 },
      { "name": "Zarch Qanat (Yazd)", "latitude": 31.9567, "longitude": 54.2750 },
      { "name": "Hasan Abad-e Moshir Qanat", "latitude": 31.5033, "longitude": 54.4394 },
      { "name": "Akbarabad Qanat (Bam)", "latitude": 29.0883, "longitude": 58.3844 },
      { "name": "Ghasem Abad Qanat (Bam)", "latitude": 29.0886, "longitude": 58.3842 },
      { "name": "Ebrahim Abad Qanat (Arak)", "latitude": 34.1205, "longitude": 49.9928 },
      { "name": "Vazvan Qanat (Isfahan)", "latitude": 33.4161, "longitude": 51.1736 },
      { "name": "Mozd Abad Qanat (Isfahan)", "latitude": 33.4111, "longitude": 51.1856 },
      { "name": "Gowhariz Qanat (Kerman)", "latitude": 30.0767, "longitude": 57.1067 },
      { "name": "Moon Qanat (Ardestan)", "latitude": 33.3853, "longitude": 52.3725 }
    ]
  },
  {
    "name": "Historic City of Yazd",
    "type": "Cultural",
    "latitude": 31.8972,
    "longitude": 54.3675,
    "countriesIsoA3": ["IRN"],
    "city": "Yazd",
    "inscription": "2017",
    "overview": "The City of Yazd is located in the middle of the Iranian plateau, close to the Spice and Silk Roads. It bears living testimony to the use of limited resources for survival in the desert.",
    "history_significance": "A center of Zoroastrianism and renowned for its adobe architecture, qanats, and windcatchers (badgirs).",
    "highlights": "Amir Chakhmaq Complex, Jame Mosque of Yazd, and the winding adobe lanes.",
    "locations": []
  },
  {
    "name": "Sassanid Archaeological Landscape of Fars Region",
    "type": "Cultural",
    "latitude": 29.7781,
    "longitude": 51.5722,
    "countriesIsoA3": ["IRN"],
    "city": "Fars Province",
    "inscription": "2018",
    "overview": "Eight archaeological sites situated in three geographical parts in the southeast of Fars Province: Firuzabad, Bishapur, and Sarvestan. These fortified structures, palaces, and city plans date back to the earliest and latest moments of the Sassanid Empire.",
    "history_significance": "Illustrates the formation of the Sassanid Empire (224-651 AD), its unique architecture (e.g., the use of domes on squinches), and the influence of Roman art.",
    "highlights": "Palace of Ardashir, the circular city of Ardashir Khurreh (Gur), and the Colossal Statue of Shapur I in Shapur Cave.",
    "locations": [
      { "name": "Bishapur City", "latitude": 29.7781, "longitude": 51.5722 },
      { "name": "Shapur Cave", "latitude": 29.8058, "longitude": 51.6097 },
      { "name": "Palace of Ardashir (Firuzabad)", "latitude": 28.8992, "longitude": 52.5392 },
      { "name": "Qal'eh Dokhtar (The Maiden Castle)", "latitude": 28.9225, "longitude": 52.5317 },
      { "name": "Ardashir Khurreh (Ancient City of Gur)", "latitude": 28.8544, "longitude": 52.5314 },
      { "name": "Ardashir Investiture Relief", "latitude": 28.9139, "longitude": 52.5369 },
      { "name": "Victory Relief of Ardashir", "latitude": 28.9103, "longitude": 52.5386 },
      { "name": "Sarvestan Palace", "latitude": 29.1969, "longitude": 53.2189 }
    ]
  },
  {
    "name": "Hyrcanian Forests",
    "type": "Natural",
    "latitude": 37.4167,
    "longitude": 55.7667,
    "countriesIsoA3": ["IRN", "AZE"],
    "city": "Various (Iran, Azerbaijan)",
    "inscription": "2019",
    "overview": "The Hyrcanian forests form a unique forested massif that stretches 850 km along the southern coast of the Caspian Sea. These broad-leaved forests date back 25 to 50 million years. Originally inscribed in 2019 for Iran, the site was extended in 2023 to include the Hirkan Forests in Azerbaijan.",
    "history_significance": "A biodiversity hotspot and a relic of the Tertiary period forests that survived the Ice Age, representing a remarkable floristic evolution. It is a transnational property sharing a rich ecosystem across the Iran-Azerbaijan border.",
    "highlights": "Golestan National Park, the Cloud Forest (Jangal-e Abr), ancient Yew trees, and the pristine Hirkan National Park areas in Azerbaijan.",
    "locations": [
      { "name": "Dangyaband (Northern Hirkan National Park)", "latitude": 38.7545, "longitude": 48.6825 },
      { "name": "Istisuchay Valley (Southern Hirkan National Park)", "latitude": 38.4550, "longitude": 48.6793 },
      { "name": "Golestan National Park (North)", "latitude": 37.4167, "longitude": 55.7667 },
      { "name": "Golestan National Park (South)", "latitude": 37.3333, "longitude": 55.5833 },
      { "name": "Jangal-e Abr (Cloud Forest)", "latitude": 36.7119, "longitude": 55.0322 },
      { "name": "Jahan Nama", "latitude": 36.6569, "longitude": 54.2858 },
      { "name": "Bula", "latitude": 36.0619, "longitude": 53.2958 },
      { "name": "Alimestan", "latitude": 36.1919, "longitude": 52.4100 },
      { "name": "Vaz", "latitude": 36.2828, "longitude": 52.0967 },
      { "name": "Cjorvat", "latitude": 36.6000, "longitude": 51.6333 },
      { "name": "Chahar-Bagh", "latitude": 36.5622, "longitude": 51.3600 },
      { "name": "Khoshk-e-Daran", "latitude": 36.7000, "longitude": 51.0719 },
      { "name": "Kojoor", "latitude": 36.5050, "longitude": 51.7222 },
      { "name": "Kotomeh", "latitude": 36.8731, "longitude": 50.7708 },
      { "name": "Lisar", "latitude": 37.9500, "longitude": 48.8833 },
      { "name": "Gaskak", "latitude": 37.0333, "longitude": 50.0167 },
      { "name": "Siah-Roud-e-Roudbar", "latitude": 36.8833, "longitude": 49.5000 }
    ]
  },
  {
    "name": "Trans-Iranian Railway",
    "type": "Cultural",
    "latitude": 35.6564,
    "longitude": 51.4017,
    "countriesIsoA3": ["IRN"],
    "city": "Various (Iran)",
    "inscription": "2021",
    "overview": "The Trans-Iranian Railway connects the Caspian Sea in the northeast with the Persian Gulf in the southwest crossing two mountain ranges as well as rivers, highlands, forests and plains, and four different climatic areas.",
    "history_significance": "Completed in 1938, it is a monumental engineering feat involving 174 large bridges and 224 tunnels.",
    "highlights": "Veresk Bridge and the spiral tunnels in the Zagros mountains.",
    "locations": [
      { "name": "Tehran Railway Station", "latitude": 35.6564, "longitude": 51.4017 },
      { "name": "Veresk Bridge", "latitude": 35.8897, "longitude": 52.9917 }
    ]
  },
  {
    "name": "Cultural Landscape of Hawraman/Uramanat",
    "type": "Cultural",
    "latitude": 35.2500,
    "longitude": 46.4667,
    "countriesIsoA3": ["IRN"],
    "city": "Paveh",
    "inscription": "2021",
    "overview": "The remote and mountainous landscape of Hawraman/Uramanat bears testimony to the traditional culture of the Hawrami people, an agropastoral Kurdish tribe that has inhabited the region since about 3000 BCE.",
    "history_significance": "Characterized by distinctive steep-slope architecture, dry-stone terracing, and seasonal migration (havar).",
    "highlights": "Uraman Takht village and the stone terraced gardens.",
    "locations": []
  },
  {
    "name": "The Persian Caravanserai",
    "type": "Cultural",
    "latitude": 35.6892,
    "longitude": 51.3890,
    "countriesIsoA3": ["IRN"],
    "city": "Various (Iran)",
    "inscription": "2023",
    "overview": "Caravanserais were roadside inns, sheltering travelers, merchants, and their livestock along ancient trade routes. This property comprises 54 selected caravanserais located across Iran.",
    "history_significance": "They display a wide range of architectural styles, adaptation to climatic conditions, and construction materials, representing the evolution of the caravanserai network over many centuries.",
    "highlights": "Deyr-e Gachin (Mother of Caravanserais), Zein-o-din (Circular), and Sa'd al-Saltaneh (Grand Bazaar style).",
    "locations": [
      { "name": "Deyr-e Gachin", "latitude": 34.9080, "longitude": 51.4172 },
      { "name": "Noushijan", "latitude": 34.2097, "longitude": 48.8105 },
      { "name": "Parand", "latitude": 35.4336, "longitude": 50.9669 },
      { "name": "Robat-e Sharaf", "latitude": 36.2661, "longitude": 60.6558 },
      { "name": "Anjireh Sangi", "latitude": 32.1122, "longitude": 53.4680 },
      { "name": "Anjireh Ajori", "latitude": 32.1097, "longitude": 53.4688 },
      { "name": "Abbasabad (Tayeabad)", "latitude": 36.3683, "longitude": 55.1055 },
      { "name": "Jamalabad", "latitude": 37.2830, "longitude": 47.8322 },
      { "name": "Qeli", "latitude": 37.1333, "longitude": 56.9167 },
      { "name": "Fakhr-e Daud", "latitude": 35.9833, "longitude": 59.3667 },
      { "name": "Sheikh Ali Khan", "latitude": 32.5333, "longitude": 51.5833 },
      { "name": "Maranjab", "latitude": 34.2986, "longitude": 51.8122 },
      { "name": "Aminabad", "latitude": 31.6667, "longitude": 51.9167 },
      { "name": "Gabarabad", "latitude": 33.7833, "longitude": 51.4833 },
      { "name": "Mahyar", "latitude": 32.2667, "longitude": 51.8167 },
      { "name": "Gaz", "latitude": 32.8083, "longitude": 51.6408 },
      { "name": "Kuhpayeh", "latitude": 32.7167, "longitude": 52.4333 },
      { "name": "Mazinan", "latitude": 36.3117, "longitude": 56.8042 },
      { "name": "Mehr", "latitude": 36.2833, "longitude": 57.1333 },
      { "name": "Zafaraniyeh", "latitude": 36.1667, "longitude": 58.0833 },
      { "name": "Fakhrabad", "latitude": 34.0000, "longitude": 58.0000 },
      { "name": "Sarayan", "latitude": 33.8583, "longitude": 58.5208 },
      { "name": "Qasr-e Bahram", "latitude": 34.7667, "longitude": 52.1833 },
      { "name": "Mayamey", "latitude": 36.4333, "longitude": 55.6500 },
      { "name": "Miandasht", "latitude": 36.4333, "longitude": 56.0667 },
      { "name": "Zein-o-din", "latitude": 31.4114, "longitude": 54.8094 },
      { "name": "Meybod", "latitude": 32.2333, "longitude": 54.0167 },
      { "name": "Farasfaj", "latitude": 34.5000, "longitude": 48.2833 },
      { "name": "Izadkhast", "latitude": 31.5125, "longitude": 52.1264 },
      { "name": "Fin", "latitude": 27.6333, "longitude": 55.8833 },
      { "name": "Masjide-e Shokr", "latitude": 32.0000, "longitude": 51.0000 },
      { "name": "Baqerabad", "latitude": 35.0000, "longitude": 50.0000 },
      { "name": "Neyestanek", "latitude": 32.9667, "longitude": 52.8000 },
      { "name": "Chehel Payeh", "latitude": 31.9500, "longitude": 57.1500 },
      { "name": "Khan (Khoy)", "latitude": 38.5500, "longitude": 44.9667 },
      { "name": "Bastak", "latitude": 27.2000, "longitude": 54.3667 },
      { "name": "Borazjan", "latitude": 29.2667, "longitude": 51.2167 },
      { "name": "Khargoshi", "latitude": 32.5000, "longitude": 52.5000 },
      { "name": "Deh-e Namak", "latitude": 35.2500, "longitude": 52.7167 },
      { "name": "Taj-Abad", "latitude": 34.8667, "longitude": 48.0667 },
      { "name": "Chah-Kouran", "latitude": 31.5667, "longitude": 56.8333 },
      { "name": "Kharanaq", "latitude": 32.3500, "longitude": 54.6667 },
      { "name": "Rashti", "latitude": 31.9000, "longitude": 54.3667 },
      { "name": "Sangi-Mohammadabad", "latitude": 34.0000, "longitude": 51.0000 },
      { "name": "Robat-e Karim", "latitude": 35.4833, "longitude": 51.0833 },
      { "name": "Ganjali Khan", "latitude": 30.2908, "longitude": 57.0789 },
      { "name": "Sa'd al-Saltaneh", "latitude": 36.2689, "longitude": 50.0067 },
      { "name": "Khajeh Nazar", "latitude": 38.9833, "longitude": 45.6000 },
      { "name": "Gojeh Bel", "latitude": 38.3333, "longitude": 46.8667 },
      { "name": "Saein", "latitude": 38.0167, "longitude": 47.8833 },
      { "name": "Yam", "latitude": 38.4167, "longitude": 45.8167 },
      { "name": "Afzal", "latitude": 32.0000, "longitude": 48.0000 },
      { "name": "Bastam", "latitude": 36.4833, "longitude": 55.0000 },
      { "name": "Ahuan", "latitude": 35.7500, "longitude": 53.5833 }
    ]
  },
  {
    "name": "Hegmataneh",
    "type": "Cultural",
    "latitude": 34.8000,
    "longitude": 48.5167,
    "countriesIsoA3": ["IRN"],
    "city": "Hamedan",
    "inscription": "2024",
    "overview": "Hegmataneh (Ecbatana) provides important evidence of the Medes civilization (7th and 6th centuries BCE) and later served as a summer capital for the Achaemenids, Seleucids, Parthians, and Sasanians.",
    "history_significance": "One of the oldest continuously inhabited cities in Iran, associated with the Median Kingdom.",
    "highlights": "The ancient mound of Hegmataneh and the extensive urban layout.",
    "locations": []
  },
  {
    "name": "Prehistoric Sites of the Khorramabad Valley",
    "type": "Cultural",
    "latitude": 33.4878,
    "longitude": 48.3558,
    "countriesIsoA3": ["IRN"],
    "city": "Khorramabad",
    "inscription": "2025",
    "overview": "Located in the Zagros Mountains, this site includes a cluster of caves and rock shelters that provide key evidence of human habitation during the Paleolithic era.",
    "history_significance": "Testifies to the early presence of Homo sapiens and Neanderthals in the region and the transition to the Neolithic era.",
    "highlights": "Kaldar Cave, Yafteh Cave, and Gilvaran Cave.",
    "locations": [
      { "name": "Kaldar Cave", "latitude": 33.5333, "longitude": 48.2833 },
      { "name": "Yafteh Cave", "latitude": 33.4950, "longitude": 48.3100 },
      { "name": "Gilvaran Cave", "latitude": 33.4728, "longitude": 48.3261 },
      { "name": "Ghamari Cave", "latitude": 33.4933, "longitude": 48.3392 },
      { "name": "Kunji Cave", "latitude": 33.4561, "longitude": 48.3753 },
      { "name": "Gar Arjeneh Rock-shelter", "latitude": 33.4350, "longitude": 48.3417 }
    ]
  },
  {
    "name": "Mesa Verde National Park",
    "type": "Cultural",
    "latitude": 37.2309,
    "longitude": -108.4618,
    "countriesIsoA3": ["USA"],
    "city": "Cortez",
    "inscription": "1978",
    "overview": "A great concentration of ancestral Pueblo Indian dwellings built from the 6th to the 12th century. The site is famous for its cliff dwellings, notably Cliff Palace.",
    "history_significance": "Provides remarkable testimony to the ancient cultural traditions of Native American tribes in the prehistoric Southwest.",
    "highlights": "Cliff Palace, Balcony House, and the Spruce Tree House.",
    "locations": []
  },
  {
    "name": "Yellowstone National Park",
    "type": "Natural",
    "latitude": 44.4280,
    "longitude": -110.5885,
    "countriesIsoA3": ["USA"],
    "city": "West Yellowstone",
    "inscription": "1978",
    "overview": "The world's first national park, established in 1872. It contains half of all the world's known geothermal features and the world's largest concentration of geysers.",
    "history_significance": "A major site for the conservation of the grizzly bear, wolf, and bison, showcasing ongoing geological processes.",
    "highlights": "Old Faithful Geyser, Grand Prismatic Spring, and the Grand Canyon of the Yellowstone.",
    "locations": []
  },
  {
    "name": "Grand Canyon National Park",
    "type": "Natural",
    "latitude": 36.0544,
    "longitude": -112.1401,
    "countriesIsoA3": ["USA"],
    "city": "Grand Canyon Village",
    "inscription": "1979",
    "overview": "Carved out by the Colorado River, the Grand Canyon is nearly 1,500 m deep and is the most spectacular gorge in the world.",
    "history_significance": "It provides a unique view of geological history, exposing rocks that date back 2 billion years.",
    "highlights": "Mather Point, Yavapai Geology Museum, and the Bright Angel Trail.",
    "locations": []
  },
  {
    "name": "Everglades National Park",
    "type": "Natural",
    "latitude": 25.2866,
    "longitude": -80.9331,
    "countriesIsoA3": ["USA"],
    "city": "Homestead",
    "inscription": "1979",
    "overview": "This site at the southern tip of Florida can be described as a river of grass flowing imperceptibly from the hinterland into the sea.",
    "history_significance": "The largest subtropical wilderness in North America, serving as a sanctuary for birds and reptiles like the manatee.",
    "highlights": "Shark Valley, Anhinga Trail, and the vast mangrove forests.",
    "locations": []
  },
  {
    "name": "Independence Hall",
    "type": "Cultural",
    "latitude": 39.9489,
    "longitude": -75.1500,
    "countriesIsoA3": ["USA"],
    "city": "Philadelphia",
    "inscription": "1979",
    "overview": "The Declaration of Independence (1776) and the Constitution of the United States (1787) were both signed in this building.",
    "history_significance": "These documents have had a profound impact on lawgivers and politicians around the world, influencing the principles of democracy.",
    "highlights": "The Assembly Room and the Liberty Bell Center across the street.",
    "locations": []
  },
  {
    "name": "Kluane / Wrangell-St. Elias / Glacier Bay / Tatshenshini-Alsek",
    "type": "Natural",
    "latitude": 61.1989,
    "longitude": -141.0000,
    "countriesIsoA3": ["USA", "CAN"],
    "city": "Alaska / Yukon / BC",
    "inscription": "1979",
    "overview": "These parks comprise an impressive complex of glaciers and high peaks on both sides of the border between Canada (Yukon Territory and British Columbia) and the United States (Alaska).",
    "history_significance": "Contains the largest non-polar icefield in the world and is home to grizzly bears, caribou, and Dall sheep.",
    "highlights": "Mount Logan, Hubbard Glacier, and the Alsek River.",
    "locations": [
      { "name": "Wrangell-St. Elias National Park and Preserve (USA)", "latitude": 61.7104, "longitude": -142.9857 },
      { "name": "Glacier Bay National Park and Preserve (USA)", "latitude": 58.6658, "longitude": -136.9002 },
      { "name": "Kluane National Park and Reserve (Canada)", "latitude": 60.7500, "longitude": -138.5000 },
      { "name": "Tatshenshini-Alsek Provincial Park (Canada)", "latitude": 59.9833, "longitude": -137.5000 }
    ]
  },
  {
    "name": "Redwood National and State Parks",
    "type": "Natural",
    "latitude": 41.2132,
    "longitude": -124.0046,
    "countriesIsoA3": ["USA"],
    "city": "Crescent City",
    "inscription": "1980",
    "overview": "Located north of San Francisco, this park protects a coastal mountain region covered with the magnificent forest of coastal redwood trees, the tallest living things on earth.",
    "history_significance": "Preserves the remnants of a group of trees that have existed for 160 million years.",
    "highlights": "Lady Bird Johnson Grove, Fern Canyon, and the Tall Trees Grove.",
    "locations": []
  },
  {
    "name": "Mammoth Cave National Park",
    "type": "Natural",
    "latitude": 37.1815,
    "longitude": -86.1505,
    "countriesIsoA3": ["USA"],
    "city": "Brownsville",
    "inscription": "1981",
    "overview": "Mammoth Cave is the world's longest known cave system, with more than 400 miles explored. It forms a unique karst topography.",
    "history_significance": "Home to unique cave-dwelling flora and fauna, including eyeless fish.",
    "highlights": "The Rotunda, Frozen Niagara, and the Historic Tour route.",
    "locations": []
  },
  {
    "name": "Olympic National Park",
    "type": "Natural",
    "latitude": 47.8021,
    "longitude": -123.6044,
    "countriesIsoA3": ["USA"],
    "city": "Port Angeles",
    "inscription": "1981",
    "overview": "Renowned for the diversity of its ecosystems, Olympic National Park features glacier-clad peaks, an extensive temperate rainforest, and a wild coastline.",
    "history_significance": "Contains the finest example of intact and protected temperate rainforest in the Pacific Northwest.",
    "highlights": "Hoh Rain Forest, Hurricane Ridge, and Ruby Beach.",
    "locations": []
  },
  {
    "name": "Cahokia Mounds State Historic Site",
    "type": "Cultural",
    "latitude": 38.6551,
    "longitude": -90.0618,
    "countriesIsoA3": ["USA"],
    "city": "Collinsville",
    "inscription": "1982",
    "overview": "Cahokia Mounds is the largest pre-Columbian settlement north of Mexico. It was occupied primarily during the Mississippian period (800–1400 AD).",
    "history_significance": "Illustrates a complex chiefdom society with advanced urban planning and monumental agriculture.",
    "highlights": "Monks Mound (largest prehistoric earthen structure in the Americas) and Woodhenge.",
    "locations": []
  },
  {
    "name": "Great Smoky Mountains National Park",
    "type": "Natural",
    "latitude": 35.6131,
    "longitude": -83.5532,
    "countriesIsoA3": ["USA"],
    "city": "Gatlinburg",
    "inscription": "1983",
    "overview": "Stretching over more than 200,000 hectares, this park is home to more than 3,500 plant species. It is relatively untouched and gives an idea of the temperate flora before human influence.",
    "history_significance": "One of the most biologically diverse areas in the world's temperate zone.",
    "highlights": "Clingmans Dome, Cades Cove, and the mist-covered peaks.",
    "locations": []
  },
  {
    "name": "La Fortaleza and San Juan National Historic Site in Puerto Rico",
    "type": "Cultural",
    "latitude": 18.4663,
    "longitude": -66.1057,
    "countriesIsoA3": ["USA","PRI"],
    "city": "San Juan",
    "inscription": "1983",
    "overview": "A series of defensive structures built between the 15th and 19th centuries to protect the city and the Bay of San Juan. They represent a fine display of European military architecture adapted to harbor sites.",
    "history_significance": "Key strategic point in the Caribbean for the Spanish Empire.",
    "highlights": "Castillo San Felipe del Morro, Castillo San Cristóbal, and the City Walls.",
    "locations": []
  },
  {
    "name": "Statue of Liberty",
    "type": "Cultural",
    "latitude": 40.6892,
    "longitude": -74.0445,
    "countriesIsoA3": ["USA"],
    "city": "New York City",
    "inscription": "1984",
    "overview": "Made in Paris by the French sculptor Bartholdi, in collaboration with Gustave Eiffel, this colossal statue was a gift from France to the United States.",
    "history_significance": "A universal symbol of freedom and democracy, welcoming millions of immigrants.",
    "highlights": "The pedestal museum and the view from the crown.",
    "locations": []
  },
  {
    "name": "Yosemite National Park",
    "type": "Natural",
    "latitude": 37.8651,
    "longitude": -119.5383,
    "countriesIsoA3": ["USA"],
    "city": "Yosemite Valley",
    "inscription": "1984",
    "overview": "Yosemite is spectacular for its granite cliffs, waterfalls, clear streams, giant sequoia groves, and biological diversity.",
    "history_significance": "Shows the effects of glacial erosion on granitic bedrock, creating unique geological features.",
    "highlights": "El Capitan, Half Dome, Yosemite Falls, and Mariposa Grove.",
    "locations": []
  },
  {
    "name": "Chaco Culture",
    "type": "Cultural",
    "latitude": 36.0605,
    "longitude": -107.9617,
    "countriesIsoA3": ["USA"],
    "city": "Nageezi",
    "inscription": "1987",
    "overview": "For over 2,000 years, Pueblo peoples inhabited a vast region of the south-western United States. Chaco Canyon was a major center of ancestral Puebloan culture between 850 and 1250.",
    "history_significance": "Noted for its monumental public and ceremonial buildings and distinctive architecture.",
    "highlights": "Pueblo Bonito, Casa Rinconada, and Chetro Ketl.",
    "locations": []
  },
  {
    "name": "Hawaii Volcanoes National Park",
    "type": "Natural",
    "latitude": 19.4194,
    "longitude": -155.2885,
    "countriesIsoA3": ["USA"],
    "city": "Volcano",
    "inscription": "1987",
    "overview": "This park contains two of the most active volcanoes in the world, Mauna Loa and Kilauea. It provides a unique example of island building through volcanic processes.",
    "history_significance": "Offers insights into the birth of the Hawaiian Islands and the views of native people.",
    "highlights": "Kilauea Caldera, Thurston Lava Tube, and the Chain of Craters Road.",
    "locations": []
  },
  {
    "name": "Monticello and the University of Virginia in Charlottesville",
    "type": "Cultural",
    "latitude": 38.0342,
    "longitude": -78.5080,
    "countriesIsoA3": ["USA"],
    "city": "Charlottesville",
    "inscription": "1987",
    "overview": "Thomas Jefferson, author of the American Declaration of Independence and third president of the United States, designed Monticello (his plantation home) and the academical village of the University of Virginia.",
    "history_significance": "An outstanding example of Neoclassical architecture inspired by classical antiquity and the Age of Reason.",
    "highlights": "The Rotunda (UVA) and the Monticello house and gardens.",
    "locations": [
      { "name": "Monticello", "latitude": 38.0103, "longitude": -78.4526 },
      { "name": "University of Virginia (Academical Village)", "latitude": 38.0342, "longitude": -78.5080 }
    ]
  },
  {
    "name": "Taos Pueblo",
    "type": "Cultural",
    "latitude": 36.4389,
    "longitude": -105.5447,
    "countriesIsoA3": ["USA"],
    "city": "Taos",
    "inscription": "1992",
    "overview": "Situated in the valley of a small tributary of the Rio Grande, this adobe settlement represents the culture of the Pueblo Indians of Arizona and New Mexico.",
    "history_significance": "One of the oldest continuously inhabited communities in the United States.",
    "highlights": "The multi-storied adobe buildings and the San Geronimo Chapel.",
    "locations": []
  },
  {
    "name": "Carlsbad Caverns National Park",
    "type": "Natural",
    "latitude": 32.1753,
    "longitude": -104.4440,
    "countriesIsoA3": ["USA"],
    "city": "Carlsbad",
    "inscription": "1995",
    "overview": "This park in New Mexico features more than 100 caves. The Carlsbad Cavern is one of the largest and most spectacular in the world.",
    "history_significance": "Notable for its huge chambers, fantastic speleothems, and the accessible Big Room.",
    "highlights": "The Big Room, Natural Entrance, and the Bat Flight Program.",
    "locations": []
  },
  {
    "name": "Waterton-Glacier International Peace Park",
    "type": "Natural",
    "latitude": 48.9967,
    "longitude": -113.9055,
    "countriesIsoA3": ["USA", "CAN"],
    "city": "Montana / Alberta",
    "inscription": "1995",
    "overview": "In 1932 Waterton Lakes National Park (Alberta, Canada) was combined with the Glacier National Park (Montana, United States) to form the world's first International Peace Park.",
    "history_significance": "Outstanding scenery and a rich variety of plant and mammal species as well as prairie, forest, alpine and glacial features.",
    "highlights": "Going-to-the-Sun Road (USA) and Upper Waterton Lake (Canada).",
    "locations": [
      { "name": "Glacier National Park (USA)", "latitude": 48.7596, "longitude": -113.7870 },
      { "name": "Waterton Lakes National Park (Canada)", "latitude": 49.0467, "longitude": -113.9167 }
    ]
  },
  {
    "name": "Papahānaumokuākea",
    "type": "Mixed",
    "latitude": 25.0000,
    "longitude": -170.0000,
    "countriesIsoA3": ["USA"],
    "city": "Various (Hawaii)",
    "inscription": "2010",
    "overview": "A vast cluster of small, low-lying islands and atolls in the Pacific Ocean. It is one of the largest marine protected areas in the world.",
    "history_significance": "Deep cosmological significance to Native Hawaiians and a habitat for threatened species like the Hawaiian monk seal.",
    "highlights": "Nihoa Island, Mokumanamana, and the pristine coral reefs.",
    "locations": []
  },
  {
    "name": "Monumental Earthworks of Poverty Point",
    "type": "Cultural",
    "latitude": 32.6358,
    "longitude": -91.4111,
    "countriesIsoA3": ["USA"],
    "city": "Epps",
    "inscription": "2014",
    "overview": "Poverty Point owes its name to a 19th-century plantation close to the site. It comprises a massive complex of earthen ridges and mounds built by hunter-fisher-gatherers between 1700 and 1100 BC.",
    "history_significance": "A remarkable achievement in earthen construction in North America that was unsurpassed for at least 2,000 years.",
    "highlights": "Mound A (Bird Mound) and the concentric C-shaped ridges.",
    "locations": []
  },
  {
    "name": "San Antonio Missions",
    "type": "Cultural",
    "latitude": 29.3242,
    "longitude": -98.4489,
    "countriesIsoA3": ["USA"],
    "city": "San Antonio, Texas",
    "inscription": "2015",
    "overview": "The site encompasses a group of five frontier mission complexes situated along a stretch of the San Antonio River basin, as well as a ranch located 37 km to the south.",
    "history_significance": "Illustrates the Spanish Crown's efforts to colonize, evangelize, and defend the northern frontier of New Spain.",
    "highlights": "The Alamo (Mission Valero) and Mission San José (Queen of the Missions).",
    "locations": [
      { "name": "The Alamo (Mission San Antonio de Valero)", "latitude": 29.4260, "longitude": -98.4861 },
      { "name": "Mission Concepción", "latitude": 29.3906, "longitude": -98.4922 },
      { "name": "Mission San José", "latitude": 29.3614, "longitude": -98.4794 },
      { "name": "Mission San Juan Capistrano", "latitude": 29.3325, "longitude": -98.4550 },
      { "name": "Mission Espada", "latitude": 29.3172, "longitude": -98.4497 },
      { "name": "Rancho de las Cabras", "latitude": 29.0964, "longitude": -98.1717 }
    ]
  },
  {
    "name": "The 20th-Century Architecture of Frank Lloyd Wright",
    "type": "Cultural",
    "latitude": 39.9061,
    "longitude": -79.4680,
    "countriesIsoA3": ["USA"],
    "city": "Various (USA)",
    "inscription": "2019",
    "overview": "This property consists of eight buildings in the United States designed by the architect Frank Lloyd Wright during the first half of the 20th century. They reflect the 'organic architecture' developed by Wright.",
    "history_significance": "Had a strong impact on the development of modern architecture in Europe and worldwide.",
    "highlights": "Fallingwater, Guggenheim Museum, and Unity Temple.",
    "locations": [
      { "name": "Unity Temple (IL)", "latitude": 41.8884, "longitude": -87.7974 },
      { "name": "Frederick C. Robie House (IL)", "latitude": 41.7898, "longitude": -87.5960 },
      { "name": "Taliesin (WI)", "latitude": 43.1411, "longitude": -90.0702 },
      { "name": "Hollyhock House (CA)", "latitude": 34.1000, "longitude": -118.2942 },
      { "name": "Fallingwater (PA)", "latitude": 39.9061, "longitude": -79.4680 },
      { "name": "Herbert and Katherine Jacobs House (WI)", "latitude": 43.0586, "longitude": -89.4417 },
      { "name": "Taliesin West (AZ)", "latitude": 33.6064, "longitude": -111.8458 },
      { "name": "Solomon R. Guggenheim Museum (NY)", "latitude": 40.7830, "longitude": -73.9590 }
    ]
  },
  {
    "name": "Hopewell Ceremonial Earthworks",
    "type": "Cultural",
    "latitude": 40.0526,
    "longitude": -82.4468,
    "countriesIsoA3": ["USA"],
    "city": "Various (Ohio)",
    "inscription": "2023",
    "overview": "A series of eight monumental earthen enclosure complexes built between 2,000 and 1,600 years ago along the central tributaries of the Ohio River.",
    "history_significance": "The most representative surviving expressions of the Indigenous Hopewell culture, known for precise geometric earthworks and astronomical alignments.",
    "highlights": "Mound City Group, Great Circle Earthworks, and Octagon Earthworks.",
    "locations": [
      { "name": "Mound City Group", "latitude": 39.3769, "longitude": -83.0031 },
      { "name": "Hopewell Mound Group", "latitude": 39.3592, "longitude": -83.0883 },
      { "name": "Seip Earthworks", "latitude": 39.2333, "longitude": -83.2167 },
      { "name": "High Bank Earthworks", "latitude": 39.2936, "longitude": -82.9231 },
      { "name": "Hopeton Earthworks", "latitude": 39.3583, "longitude": -82.9833 },
      { "name": "Octagon Earthworks", "latitude": 40.0526, "longitude": -82.4468 },
      { "name": "Great Circle Earthworks", "latitude": 40.0414, "longitude": -82.4431 },
      { "name": "Fort Ancient Earthworks", "latitude": 39.4086, "longitude": -84.0932 }
    ]
  },
  {
    "name": "L'Anse aux Meadows National Historic Site",
    "type": "Cultural",
    "latitude": 51.5953,
    "longitude": -55.5312,
    "countriesIsoA3": ["CAN"],
    "city": "Newfoundland and Labrador",
    "inscription": "1978",
    "overview": "The remains of an 11th-century Viking settlement are evidence of the first European presence in North America.",
    "history_significance": "A unique milestone in the history of human migration and discovery, excavated remains of wood-framed peat-turf buildings are similar to those found in Norse Greenland and Iceland.",
    "highlights": "Reconstructed sod houses and the archaeological site.",
    "locations": []
  },
  {
    "name": "Nahanni National Park Reserve",
    "type": "Natural",
    "latitude": 61.5310,
    "longitude": -125.6885,
    "countriesIsoA3": ["CAN"],
    "city": "Northwest Territories",
    "inscription": "1978",
    "overview": "Located along the South Nahanni River, this park is known for its deep canyons and huge waterfalls, as well as its unique limestone cave systems.",
    "history_significance": "Protects a portion of the Mackenzie Mountains Natural Region and features the spectacular Virginia Falls.",
    "highlights": "Virginia Falls (twice the height of Niagara) and the Cirque of the Unclimbables.",
    "locations": []
  },
  {
    "name": "Dinosaur Provincial Park",
    "type": "Natural",
    "latitude": 50.7533,
    "longitude": -111.5162,
    "countriesIsoA3": ["CAN"],
    "city": "Alberta",
    "inscription": "1979",
    "overview": "Located in the badlands of southeastern Alberta, this park contains some of the most important fossil discoveries ever made from the 'Age of Reptiles'.",
    "history_significance": "More than 35 species of dinosaurs dating back 75 million years have been discovered here.",
    "highlights": "The Badlands landscape and the Royal Tyrrell Museum field station.",
    "locations": []
  },
  {
    "name": "Head-Smashed-In Buffalo Jump",
    "type": "Cultural",
    "latitude": 49.7494,
    "longitude": -113.6256,
    "countriesIsoA3": ["CAN"],
    "city": "Alberta",
    "inscription": "1981",
    "overview": "A buffalo jump where Indigenous peoples drove bison over a cliff for nearly 6,000 years. It is one of the oldest and best-preserved sites of its kind.",
    "history_significance": "Testifies to the sophisticated hunting techniques and communal life of the Plains people.",
    "highlights": "The sandstone cliff and the interpretive center built into the hill.",
    "locations": []
  },
  {
    "name": "SGang Gwaay",
    "type": "Cultural",
    "latitude": 52.0944,
    "longitude": -131.2217,
    "countriesIsoA3": ["CAN"],
    "city": "British Columbia",
    "inscription": "1981",
    "overview": "The village of Ninstints (Nansdins) is located on a small island off the west coast of the Queen Charlotte Islands (Haida Gwaii). It features remains of large cedar longhouses and totem poles.",
    "history_significance": "Commemorates the living culture of the Haida people and their relationship with the land and sea.",
    "highlights": "The weathering totem poles facing the ocean.",
    "locations": []
  },
  {
    "name": "Wood Buffalo National Park",
    "type": "Natural",
    "latitude": 59.3833,
    "longitude": -112.9833,
    "countriesIsoA3": ["CAN"],
    "city": "Alberta & NWT",
    "inscription": "1983",
    "overview": "Canada's largest national park, home to the largest population of wild bison in North America and the nesting ground of the whooping crane.",
    "history_significance": "Contains the world's largest inland delta (Peace-Athabasca Delta) and vast salt plains.",
    "highlights": "The Salt Plains and the bison herds.",
    "locations": []
  },
  {
    "name": "Canadian Rocky Mountain Parks",
    "type": "Natural",
    "latitude": 51.5000,
    "longitude": -116.5000,
    "countriesIsoA3": [ "CAN" ],
    "city": "Alberta & BC",
    "inscription": "1984",
    "overview": "The contiguous national parks of Banff, Jasper, Kootenay, and Yoho, as well as three provincial parks, form a striking mountain landscape.",
    "history_significance": "Renowned for scenic splendor, including peaks, glaciers, lakes, waterfalls, canyons, and limestone caves (Burgess Shale fossils).",
    "highlights": "Lake Louise, Moraine Lake, and the Columbia Icefield.",
    "locations": [
      { "name": "Banff National Park", "latitude": 51.4968, "longitude": -115.9281 },
      { "name": "Jasper National Park", "latitude": 52.8737, "longitude": -118.0814 },
      { "name": "Yoho National Park", "latitude": 51.4626, "longitude": -116.5841 },
      { "name": "Kootenay National Park", "latitude": 50.8833, "longitude": -116.0500 },
      { "name": "Mount Robson Provincial Park", "latitude": 53.0764, "longitude": -119.1417 },
      { "name": "Mount Assiniboine Provincial Park", "latitude": 50.9167, "longitude": -115.6500 },
      { "name": "Hamber Provincial Park", "latitude": 52.3667, "longitude": -117.8667 }
    ]
  },
  {
    "name": "Historic District of Old Québec",
    "type": "Cultural",
    "latitude": 46.8122,
    "longitude": -71.2069,
    "countriesIsoA3": ["CAN"],
    "city": "Québec City",
    "inscription": "1985",
    "overview": "Founded by the French explorer Champlain in the early 17th century, it is the only North American city to have preserved its ramparts.",
    "history_significance": "A remarkable example of a fortified colonial city and the cradle of French civilization in North America.",
    "highlights": "Château Frontenac, the Citadel, and the Petit-Champlain district.",
    "locations": []
  },
  {
    "name": "Gros Morne National Park",
    "type": "Natural",
    "latitude": 49.6217,
    "longitude": -57.7317,
    "countriesIsoA3": ["CAN"],
    "city": "Newfoundland and Labrador",
    "inscription": "1987",
    "overview": "Located on the west coast of Newfoundland, the park provides a rare example of the process of continental drift, where deep ocean crust and the rocks of the earth's mantle lie exposed.",
    "history_significance": "The Tablelands offer a unique visible example of plate tectonics.",
    "highlights": "The Tablelands, Western Brook Pond fjord, and Green Gardens.",
    "locations": []
  },
  {
    "name": "Old Town Lunenburg",
    "type": "Cultural",
    "latitude": 44.3772,
    "longitude": -64.3110,
    "countriesIsoA3": ["CAN"],
    "city": "Nova Scotia",
    "inscription": "1995",
    "overview": "Lunenburg is the best surviving example of a planned British colonial settlement in North America. Established in 1753, it has retained its original layout.",
    "history_significance": "Famous for its colorful wooden architecture and shipbuilding tradition (home of the Bluenose II).",
    "highlights": "The waterfront, the red buildings, and the Fisheries Museum of the Atlantic.",
    "locations": []
  },
  {
    "name": "Miguasha National Park",
    "type": "Natural",
    "latitude": 48.1130,
    "longitude": -66.3639,
    "countriesIsoA3": ["CAN"],
    "city": "Québec City",
    "inscription": "1999",
    "overview": "Located on the southern coast of the Gaspé Peninsula, Miguasha is a paleontological site known for its abundance of fossils from the Devonian Period ('Age of Fishes').",
    "history_significance": "Contains the finest specimens of lobe-finned fish (Sarcopterygii), ancestors of the first four-legged land-living vertebrates.",
    "highlights": "The museum and fossil cliffs.",
    "locations": []
  },
  {
    "name": "Rideau Canal",
    "type": "Cultural",
    "latitude": 45.4247,
    "longitude": -75.6996,
    "countriesIsoA3": ["CAN"],
    "city": "Ontario",
    "inscription": "2007",
    "overview": "A monumental early 19th-century construction covering 202 km of the Rideau and Cataraqui rivers from Ottawa south to Kingston Harbor on Lake Ontario.",
    "history_significance": "The best-preserved example of a slackwater canal in North America and remains operational with most of its original structures.",
    "highlights": "Ottawa Locks (near Parliament), Jones Falls, and the Kingston Mills.",
    "locations": [
      { "name": "Ottawa Locks", "latitude": 45.4247, "longitude": -75.6996 },
      { "name": "Kingston Mills", "latitude": 44.2933, "longitude": -76.4431 }
    ]
  },
  {
    "name": "Joggins Fossil Cliffs",
    "type": "Natural",
    "latitude": 45.7119,
    "longitude": -64.4378,
    "countriesIsoA3": ["CAN"],
    "city": "Nova Scotia",
    "inscription": "2008",
    "overview": "A paleontological site along the coast of Nova Scotia, known as the 'Coal Age Galápagos'. It contains the best fossil record of the Carboniferous period.",
    "history_significance": "Provides a complete record of life in the Carboniferous era, including the earliest reptiles (Hylonomus).",
    "highlights": "The fossil-rich cliffs and the Joggins Fossil Centre.",
    "locations": []
  },
  {
    "name": "Landscape of Grand Pré",
    "type": "Cultural",
    "latitude": 45.1064,
    "longitude": -64.3086,
    "countriesIsoA3": ["CAN"],
    "city": "Nova Scotia",
    "inscription": "2012",
    "overview": "A cultural landscape situated in the southern Minas Basin of Nova Scotia, the site is a memorial to the Acadian way of life and their deportation.",
    "history_significance": "Demonstrates the ingenuity of 17th-century Acadian settlers in adapting to the coastal environment using dykes (aboiteaux).",
    "highlights": "Grand-Pré National Historic Site and the dykelands.",
    "locations": []
  },
  {
    "name": "Red Bay Basque Whaling Station",
    "type": "Cultural",
    "latitude": 51.7333,
    "longitude": -56.4333,
    "countriesIsoA3": ["CAN"],
    "city": "Newfoundland and Labrador",
    "inscription": "2013",
    "overview": "An archaeological site on the coast of Labrador that was a major Basque whaling station in the 16th century.",
    "history_significance": "The largest and most complete example of early industrial-scale whaling in the world.",
    "highlights": "Saddle Island and the Interpretation Centre with the chalupa boat.",
    "locations": []
  },
  {
    "name": "Mistaken Point",
    "type": "Natural",
    "latitude": 46.6267,
    "longitude": -53.2458,
    "countriesIsoA3": ["CAN"],
    "city": "Newfoundland and Labrador",
    "inscription": "2016",
    "overview": "Located at the southeastern tip of Newfoundland, this site contains the oldest known large, complex, multicellular life forms (Ediacaran biota).",
    "history_significance": "These fossils date back 565 million years and illustrate a watershed moment in the history of life on Earth.",
    "highlights": "The fossil-covered bedding planes along the coastline.",
    "locations": []
  },
  {
    "name": "Pimachiowin Aki",
    "type": "Mixed",
    "latitude": 51.8269,
    "longitude": -95.4219,
    "countriesIsoA3": ["CAN"],
    "city": "Manitoba & Ontario",
    "inscription": "2018",
    "overview": "Pimachiowin Aki ('The Land That Gives Life') is a vast landscape of boreal forest, rivers, and lakes, inhabited by the Anishinaabe people.",
    "history_significance": "An exceptional example of the cultural tradition of Ji-ganawendamang Gidakiiminaan (Keeping the Land), harmonizing culture and nature.",
    "highlights": "The untouched boreal forest and traditional Anishinaabe territories.",
    "locations": []
  },
  {
    "name": "Writing-on-Stone / Áísínai'pi",
    "type": "Cultural",
    "latitude": 49.0819,
    "longitude": -111.6167,
    "countriesIsoA3": ["CAN"],
    "city": "Alberta",
    "inscription": "2019",
    "overview": "Located in the Milk River Valley, this site features a landscape of hoodoos and the largest concentration of rock art on the Great Plains.",
    "history_significance": "A sacred place for the Blackfoot (Siksikáítapi) people, containing thousands of petroglyphs and pictographs.",
    "highlights": "The hoodoos, rock art panels, and the Milk River.",
    "locations": []
  },
  {
    "name": "Anticosti",
    "type": "Natural",
    "latitude": 49.5222,
    "longitude": -63.3083,
    "countriesIsoA3": ["CAN"],
    "city": "Québec City",
    "inscription": "2023",
    "overview": "Located in the Gulf of St. Lawrence, Anticosti Island contains the most complete fossil record of marine life covering 10 million years of Earth history (Ordovician-Silurian).",
    "history_significance": "It provides the best exposure of the first mass extinction event of animal life (Late Ordovician mass extinction).",
    "highlights": "Vast limestone cliffs rich in fossils and the Vauréal Falls.",
    "locations": []
  },
  {
    "name": "Tr'ondëk-Klondike",
    "type": "Cultural",
    "latitude": 64.0600,
    "longitude": -139.4325,
    "countriesIsoA3": ["CAN"],
    "city": "Yukon",
    "inscription": "2023",
    "overview": "Located along the Yukon River, this serial property lies within the homeland of the Tr'ondëk Hwëch'in First Nation. It tells the story of the Klondike Gold Rush from an Indigenous perspective.",
    "history_significance": "Demonstrates the adaptation of Indigenous people to the unprecedented changes caused by the gold rush.",
    "highlights": "Fort Reliance, Dawson City, and Moosehide Village.",
    "locations": [
      { "name": "Dawson City", "latitude": 64.0600, "longitude": -139.4325 },
      { "name": "Fort Reliance", "latitude": 64.1450, "longitude": -139.4883 },
      { "name": "Moosehide Village", "latitude": 64.0950, "longitude": -139.4417 }
    ]
  },
  {
    "name": "Historic Town of Ouro Preto",
    "type": "Cultural",
    "latitude": -20.3856,
    "longitude": -43.5036,
    "countriesIsoA3": ["BRA"],
    "city": "Minas Gerais",
    "inscription": "1980",
    "overview": "Founded at the end of the 17th century, Ouro Preto (Black Gold) was the focal point of the gold rush and the golden age of Brazil in the 18th century.",
    "history_significance": "A masterpiece of Brazilian Baroque architecture and art, featuring the works of Aleijadinho.",
    "highlights": "Church of São Francisco de Assis and the steep cobbled streets.",
    "locations": []
  },
  {
    "name": "Historic Centre of the Town of Olinda",
    "type": "Cultural",
    "latitude": -8.0089,
    "longitude": -34.8553,
    "countriesIsoA3": ["BRA"],
    "city": "Pernambuco",
    "inscription": "1982",
    "overview": "Founded in the 16th century by the Portuguese, the town's history is linked to the sugar cane industry. It was rebuilt after being looted by the Dutch.",
    "history_significance": "Known for its harmonious balance between buildings, gardens, 20 baroque churches, convents, and numerous small pasos (chapels).",
    "highlights": "Convent of São Francisco and the view from the Alto da Sé.",
    "locations": []
  },
  {
    "name": "Jesuit Missions of the Guaranis",
    "type": "Cultural",
    "latitude": -27.2553,
    "longitude": -55.5325,
    "countriesIsoA3": [ "ARG", "BRA" ],
    "city": "Misiones , Rio Grande do Sul",
    "inscription": "1983",
    "overview": "The ruins of São Miguel das Missões in Brazil, and four other missions in Argentina (San Ignacio Miní, Santa Ana, Nuestra Señora de Loreto, and Santa María Mayor), are the remains of the Jesuit missions built in the land of the Guaranis.",
    "history_significance": "Testifies to the unique social and economic experiment of the Jesuit reductions (17th-18th centuries) and the cultural interaction between European missionaries and indigenous peoples.",
    "highlights": "Ruins of São Miguel Arcanjo and San Ignacio Miní.",
    "locations": [
      { "name": "Ruins of São Miguel das Missões (Brazil)", "latitude": -28.5478, "longitude": -54.5583 },
      { "name": "San Ignacio Miní (Argentina)", "latitude": -27.2553, "longitude": -55.5325 },
      { "name": "Nuestra Señora de Loreto (Argentina)", "latitude": -27.3314, "longitude": -55.5186 },
      { "name": "Santa Ana (Argentina)", "latitude": -27.3917, "longitude": -55.5786 },
      { "name": "Santa María Mayor (Argentina)", "latitude": -27.8869, "longitude": -55.3375 }
    ]
  },
  {
    "name": "Historic Centre of Salvador de Bahia",
    "type": "Cultural",
    "latitude": -12.9714,
    "longitude": -38.5111,
    "countriesIsoA3": ["BRA"],
    "city": "Bahia",
    "inscription": "1985",
    "overview": "As the first capital of Brazil from 1549 to 1763, Salvador de Bahia witnessed the blending of European, African, and Amerindian cultures.",
    "history_significance": "Renowned for its outstanding collection of 17th and 18th-century colonial architecture, particularly in the Pelourinho district.",
    "highlights": "Pelourinho, Church and Convent of São Francisco, and the Lacerda Elevator.",
    "locations": []
  },
  {
    "name": "Sanctuary of Bom Jesus do Congonhas",
    "type": "Cultural",
    "latitude": -20.5000,
    "longitude": -43.8597,
    "countriesIsoA3": ["BRA"],
    "city": "Minas Gerais",
    "inscription": "1985",
    "overview": "Built in the second half of the 18th century, this sanctuary consists of a church with a magnificent Rococo interior and an outdoor stairway decorated with statues of the prophets.",
    "history_significance": "Features the twelve sculptures of the prophets carved in soapstone by Aleijadinho, considered his masterpiece.",
    "highlights": "The Twelve Prophets and the six chapels of the Steps of the Passion.",
    "locations": []
  },
  {
    "name": "Iguaçu National Park",
    "type": "Natural",
    "latitude": -25.6953,
    "longitude": -54.4367,
    "countriesIsoA3": ["BRA"],
    "city": "Paraná",
    "inscription": "1986",
    "overview": "The park shares with Iguazú National Park in Argentina one of the world's largest and most impressive waterfalls, extending over some 2,700 m.",
    "history_significance": "Home to many rare and endangered species of flora and fauna, such as the giant otter and the giant anteater.",
    "highlights": "The Devil's Throat (Garganta do Diabo) and the subtropical rainforest.",
    "locations": []
  },
  {
    "name": "Brasilia",
    "type": "Cultural",
    "latitude": -15.7942,
    "longitude": -47.8822,
    "countriesIsoA3": ["BRA"],
    "city": "Federal District",
    "inscription": "1987",
    "overview": "Brasilia, a capital created ex nihilo in the center of the country in 1956, was a landmark in the history of town planning.",
    "history_significance": "Designed by urban planner Lúcio Costa and architect Oscar Niemeyer, it is a masterpiece of Modernist architecture and urbanism.",
    "highlights": "National Congress, Cathedral of Brasília, and the Plaza of the Three Powers.",
    "locations": []
  },
  {
    "name": "Serra da Capivara National Park",
    "type": "Cultural",
    "latitude": -8.8300,
    "longitude": -42.5500,
    "countriesIsoA3": ["BRA"],
    "city": "Piauí",
    "inscription": "1991",
    "overview": "This area contains the largest concentration of rock paintings in the Americas. Many of the numerous rock shelters in the park are decorated with cave paintings.",
    "history_significance": "Provides outstanding testimony to one of the oldest human communities in South America, dating back over 25,000 years.",
    "highlights": "Pedra Furada and the vivid rock art depicting rituals and hunting.",
    "locations": []
  },
  {
    "name": "Historic Centre of São Luís",
    "type": "Cultural",
    "latitude": -2.5297,
    "longitude": -44.3028,
    "countriesIsoA3": ["BRA"],
    "city": "Maranhão",
    "inscription": "1997",
    "overview": "Founded by the French and occupied by the Dutch before falling to Portuguese rule, São Luís has preserved the complete rectangular street plan of the 17th century.",
    "history_significance": "Famous for its extensive use of azulejos (tiled facades) and traditional Portuguese colonial architecture adapted to the tropical climate.",
    "highlights": "The tiled facades of colonial mansions and the Palace of the Lions.",
    "locations": []
  },
  {
    "name": "Atlantic Forest South-East Reserves",
    "type": "Natural",
    "latitude": -24.1667,
    "longitude": -48.0000,
    "countriesIsoA3": ["BRA"],
    "city": "São Paulo & Paraná",
    "inscription": "1999",
    "overview": "The site contains some of the best and most extensive examples of the Atlantic Forest, one of the most threatened biome in the world.",
    "history_significance": "Displays the biological evolution and history of the Atlantic Forest, with a high level of endemism.",
    "highlights": "Petar State Park (caves) and Ilha do Cardoso.",
    "locations": [
      { "name": "Superagui National Park", "latitude": -25.4667, "longitude": -48.2500 },
      { "name": "Ilha do Cardoso State Park", "latitude": -25.1333, "longitude": -47.9667 }
    ]
  },
  {
    "name": "Discovery Coast Atlantic Forest Reserves",
    "type": "Natural",
    "latitude": -16.5000,
    "longitude": -39.2500,
    "countriesIsoA3": ["BRA"],
    "city": "Bahia & Espírito Santo",
    "inscription": "1999",
    "overview": "Consisting of eight separate protected areas containing 112,000 ha of Atlantic forest and associated shrub (restingas).",
    "history_significance": "The world's richest area in terms of number of tree species per hectare (more than the Amazon).",
    "highlights": "Monte Pascoal National Park and Una Biological Reserve.",
    "locations": []
  },
  {
    "name": "Historic Centre of the Town of Diamantina",
    "type": "Cultural",
    "latitude": -18.2389,
    "longitude": -43.6000,
    "countriesIsoA3": ["BRA"],
    "city": "Minas Gerais",
    "inscription": "1999",
    "overview": "Diamantina, a colonial village set like a jewel in a necklace of rocky mountains, recalls the exploits of diamond prospectors in the 18th century.",
    "history_significance": "Shows the triumph of human cultural and artistic endeavor over a harsh environment.",
    "highlights": "The wooden colonial houses and the Church of Nossa Senhora do Carmo.",
    "locations": []
  },
  {
    "name": "Central Amazon Conservation Complex",
    "type": "Natural",
    "latitude": -2.3333,
    "longitude": -62.5000,
    "countriesIsoA3": ["BRA"],
    "city": "Amazonas",
    "inscription": "2000",
    "overview": "The largest protected area in the Amazon Basin (over 6 million hectares) and one of the richest regions of the planet in terms of biodiversity.",
    "history_significance": "Home to key threatened species like the Amazon manatee, black caiman, and two species of river dolphins.",
    "highlights": "Jaú National Park and the flooded forests (igapó).",
    "locations": [
      { "name": "Jaú National Park", "latitude": -2.1667, "longitude": -62.6667 },
      { "name": "Mamirauá Sustainable Development Reserve", "latitude": -2.0000, "longitude": -65.5000 }
    ]
  },
  {
    "name": "Pantanal Conservation Area",
    "type": "Natural",
    "latitude": -17.7167,
    "longitude": -57.4167,
    "countriesIsoA3": ["BRA"],
    "city": "Mato Grosso",
    "inscription": "2000",
    "overview": "The Pantanal consists of a cluster of four protected areas with a total area of 187,818 ha. It is part of one of the world's largest freshwater wetland ecosystems.",
    "history_significance": "Critical habitat for the jaguar, giant anteater, and thousands of bird species.",
    "highlights": "The seasonal flooding and wildlife watching opportunities.",
    "locations": []
  },
  {
    "name": "Brazilian Atlantic Islands: Fernando de Noronha and Atol das Rocas Reserves",
    "type": "Natural",
    "latitude": -3.8547,
    "longitude": -32.4286,
    "countriesIsoA3": ["BRA"],
    "city": "Pernambuco & RN",
    "inscription": "2001",
    "overview": "The peaks of the Southern Atlantic submarine ridge form the Fernando de Noronha Archipelago and Rocas Atoll.",
    "history_significance": "Key site for the breeding of tuna, sharks, turtles, and marine mammals. Baía dos Golfinhos has an exceptional population of resident dolphins.",
    "highlights": "Baía do Sancho (often voted world's best beach) and the Spinner Dolphins.",
    "locations": [
      { "name": "Fernando de Noronha", "latitude": -3.8547, "longitude": -32.4286 },
      { "name": "Atol das Rocas", "latitude": -3.8667, "longitude": -33.8000 }
    ]
  },
  {
    "name": "Cerrado Protected Areas: Chapada dos Veadeiros and Emas National Parks",
    "type": "Natural",
    "latitude": -14.1667,
    "longitude": -47.6667,
    "countriesIsoA3": ["BRA"],
    "city": "Goiás",
    "inscription": "2001",
    "overview": "These two parks characterize the Cerrado, one of the world's oldest and most diverse tropical ecosystems.",
    "history_significance": "Contains flora and fauna critical for maintaining the biodiversity of the Cerrado biome.",
    "highlights": "Moon Valley (Vale da Lua) in Chapada dos Veadeiros and termite mounds in Emas.",
    "locations": [
      { "name": "Chapada dos Veadeiros National Park", "latitude": -14.1667, "longitude": -47.6667 },
      { "name": "Emas National Park", "latitude": -18.0000, "longitude": -52.9167 }
    ]
  },
  {
    "name": "Historic Centre of the Town of Goiás",
    "type": "Cultural",
    "latitude": -15.9333,
    "longitude": -50.1333,
    "countriesIsoA3": ["BRA"],
    "city": "Goiás",
    "inscription": "2001",
    "overview": "Goiás testifies to the occupation and colonization of the lands of central Brazil in the 18th and 19th centuries.",
    "history_significance": "A fine example of an organic mining settlement adapted to the constraints of the local topography.",
    "highlights": "The Cora Coralina House and the simple vernacular architecture.",
    "locations": []
  },
  {
    "name": "São Francisco Square in the Town of São Cristóvão",
    "type": "Cultural",
    "latitude": -11.0147,
    "longitude": -37.2064,
    "countriesIsoA3": ["BRA"],
    "city": "Sergipe",
    "inscription": "2010",
    "overview": "São Francisco Square is a quadrilateral open space surrounded by monumental buildings such as the Church and Convent of São Francisco.",
    "history_significance": "A rare example in Brazil of Spanish architectural influence (during the Iberian Union) merged with Portuguese styles.",
    "highlights": "The Church and Convent of São Francisco and the monumental square layout.",
    "locations": []
  },
  {
    "name": "Rio de Janeiro: Carioca Landscapes between the Mountain and the Sea",
    "type": "Cultural",
    "latitude": -22.9519,
    "longitude": -43.2105,
    "countriesIsoA3": ["BRA"],
    "city": "Rio de Janeiro",
    "inscription": "2012",
    "overview": "The site consists of an exceptional urban setting encompassing the natural elements that have shaped the development of the city.",
    "history_significance": "Shows the artistic inspiration provided by the landscape to musicians, landscapers, and urbanists.",
    "highlights": "Christ the Redeemer (Corcovado), Sugarloaf Mountain, and the Botanical Garden.",
    "locations": [
      { "name": "Christ the Redeemer (Corcovado)", "latitude": -22.9519, "longitude": -43.2105 },
      { "name": "Sugarloaf Mountain", "latitude": -22.9493, "longitude": -43.1545 },
      { "name": "Rio de Janeiro Botanical Garden", "latitude": -22.9676, "longitude": -43.2236 },
      { "name": "Tijuca National Park", "latitude": -22.9500, "longitude": -43.2833 }
    ]
  },
  {
    "name": "Pampulha Modern Ensemble",
    "type": "Cultural",
    "latitude": -19.8580,
    "longitude": -43.9789,
    "countriesIsoA3": ["BRA"],
    "city": "Belo Horizonte",
    "inscription": "2016",
    "overview": "A garden city project created in 1940 at Belo Horizonte. Designed by Oscar Niemeyer, in collaboration with landscape architect Roberto Burle Marx.",
    "history_significance": "Represents the first large-scale expression of the modern architectural language in Brazil.",
    "highlights": "Church of Saint Francis of Assisi and the artificial lake.",
    "locations": []
  },
  {
    "name": "Valongo Wharf Archaeological Site",
    "type": "Cultural",
    "latitude": -22.8967,
    "longitude": -43.1864,
    "countriesIsoA3": ["BRA"],
    "city": "Rio de Janeiro",
    "inscription": "2017",
    "overview": "The Valongo Wharf is the site of the former harbour of Rio de Janeiro. It was the main landing point for enslaved Africans arriving in South America.",
    "history_significance": "The most significant physical trace of the arrival of African slaves on the American continent.",
    "highlights": "The archaeological remains of the stone wharf.",
    "locations": []
  },
  {
    "name": "Paraty and Ilha Grande – Culture and Biodiversity",
    "type": "Mixed",
    "latitude": -23.2203,
    "longitude": -44.7119,
    "countriesIsoA3": ["BRA"],
    "city": "Rio de Janeiro",
    "inscription": "2019",
    "overview": "Located between the Serra da Bocaina mountain range and the Atlantic Ocean, this mixed site includes the historic centre of Paraty and the Ilha Grande island.",
    "history_significance": "Combines the well-preserved colonial architecture of Paraty (a key gold route port) with high biodiversity.",
    "highlights": "Historic Centre of Paraty and the pristine beaches of Ilha Grande.",
    "locations": [
      { "name": "Historic Centre of Paraty", "latitude": -23.2203, "longitude": -44.7119 },
      { "name": "Ilha Grande", "latitude": -23.1517, "longitude": -44.2333 }
    ]
  },
  {
    "name": "Sítio Roberto Burle Marx",
    "type": "Cultural",
    "latitude": -23.0233,
    "longitude": -43.5439,
    "countriesIsoA3": ["BRA"],
    "city": "Rio de Janeiro",
    "inscription": "2021",
    "overview": "The site is a 'landscape laboratory' where landscape architect Roberto Burle Marx created over 3,500 species of plants.",
    "history_significance": "The first modern tropical garden, influencing garden design worldwide.",
    "highlights": "The diverse botanical collection and modernist landscape design.",
    "locations": []
  },
  {
    "name": "Lençóis Maranhenses National Park",
    "type": "Natural",
    "latitude": -2.5333,
    "longitude": -43.1167,
    "countriesIsoA3": ["BRA"],
    "city": "Maranhão",
    "inscription": "2024",
    "overview": "Located on the eastern coast of Maranhão state, this park is known for its vast white sand dunes and seasonal rainwater lagoons.",
    "history_significance": "Offers exceptional scenic beauty and important geological processes of dune formation and movement.",
    "highlights": "The Blue Lagoon (Lagoa Azul) and Bonita Lagoon.",
    "locations": []
  },
  {
    "name": "Cavernas do Peruaçu National Park",
    "type": "Mixed",
    "latitude": -15.1158,
    "longitude": -44.2453,
    "countriesIsoA3": [ "BRA" ],
    "city": "Minas Gerais",
    "inscription": "2025",
    "overview": "Located in the São Francisco River valley, this park features spectacular karst canyons, monumental caves with immense entrance arches, and the perennial Peruaçu River.",
    "history_significance": "It houses some of the most impressive prehistoric rock art in the world, dating back over 11,000 years (São Francisco style), testifying to ancient human occupation in South America.",
    "highlights": "Gruta do Janelão (massive entrance), 'Perna da Bailarina' (world's largest stalactite), and the colorful rock paintings of Lapa do Rezar.",
    "locations": [
      { "name": "Gruta do Janelão", "latitude": -15.1158, "longitude": -44.2453 },
      { "name": "Lapa do Índio", "latitude": -15.1083, "longitude": -44.2389 },
      { "name": "Lapa do Caboclo", "latitude": -15.0917, "longitude": -44.2333 },
      { "name": "Lapa do Rezar", "latitude": -15.1333, "longitude": -44.2667 },